[
  {
    "name": "Achilles Crescent Reserve",
    "long": "174.795749627387",
    "lat": "-36.8139374812371",
    "address": "13 Achilles Crescent, Auckland",
    "nb_items": 3,
    "equipment": "Module-Small-Jnr<br>Seesaw-Spring<br>Swing",
    "id": 10960,
    "url": "http://www.aucklandcity.govt.nz/whatson/places/parksonline/detail2.asp?pParkId=10113",
    "facilities": "playground, toilets",
    "about": "Local Park - Leisure"
  },
  {
    "name": "Aitken Reserve",
    "long": "174.752068856474",
    "lat": "-36.8676251378544",
    "address": "5A Aitken Terrace, Auckland",
    "nb_items": 2,
    "equipment": "Module<br>Swing T bar",
    "id": 20869,
    "url": "http://www.aucklandcity.govt.nz/whatson/places/parksonline/detail2.asp?pParkId=10",
    "facilities": "Playground",
    "about": "Local small open space."
  },
  {
    "name": "Alan Reserve",
    "long": "174.617711401182",
    "lat": "-36.8637779072271",
    "address": "  Alan Avenue, Auckland",
    "nb_items": 3,
    "equipment": "Modern Modular<br>Spica<br>Swing Double",
    "id": 22672,
    "url": "http://www.aucklandcity.govt.nz/whatson/places/parksonline/detail2.asp?pParkId=10129",
    "facilities": "playground",
    "about": "Local Park - Leisure"
  },
  {
    "name": "Alexander Recreation Reserve",
    "long": "174.744704649051",
    "lat": "-36.435075517609",
    "address": "42 Alexander Road, Auckland",
    "nb_items": 1,
    "equipment": "Swing",
    "id": 23515,
    "url": "http://www.aucklandcity.govt.nz/whatson/places/parksonline/detail2.asp?pParkId=10144",
    "facilities": "playground",
    "about": ""
  },
  {
    "name": "Algies Bay Reserve",
    "long": "174.743716408903",
    "lat": "-36.4334504491242",
    "address": "30 Gordon Craig Place, Auckland",
    "nb_items": 4,
    "equipment": "Climbing module - pirate tower<br>Seasaw<br>Slide Module-hex tower&mega slide<br>Swing snr",
    "id": 11232,
    "url": "http://www.aucklandcity.govt.nz/whatson/places/parksonline/detail2.asp?pParkId=10147",
    "facilities": "BBQ,playground, toilets",
    "about": ""
  },
  {
    "name": "Alice Park",
    "long": "174.898470406018",
    "lat": "-37.0261830953463",
    "address": "21R Beaumonts Way, Auckland",
    "nb_items": 3,
    "equipment": "Playground-Timber sawn & concrete<br>Moden Modular-Small<br>Spatial Nets",
    "id": 21392,
    "url": "http://www.aucklandcity.govt.nz/whatson/places/parksonline/detail2.asp?pParkId=10149",
    "facilities": "playground",
    "about": "Local Park - Leisure"
  },
  {
    "name": "Allenby Reserve - Narrow Neck",
    "long": "174.801094646374",
    "lat": "-36.8219565051275",
    "address": "R 1 Allenby Avenue, North Shore",
    "nb_items": 4,
    "equipment": "Overhead Event<br>Seesaw-Spring<br>Slide<br>Swing",
    "id": 12941,
    "url": "",
    "facilities": "",
    "about": ""
  },
  {
    "name": "Amanda Reserve",
    "long": "174.729618128757",
    "lat": "-36.4239667085073",
    "address": "2 Amanda Lane, Snells Beach",
    "nb_items": 2,
    "equipment": "Module-Medium<br>Swing",
    "id": 22351,
    "url": "http://www.aucklandcity.govt.nz/whatson/places/parksonline/detail2.asp?pParkId=10156",
    "facilities": "playground",
    "about": ""
  },
  {
    "name": "Ambrico Reserve",
    "long": "174.680649211236",
    "lat": "-36.9115577555014",
    "address": "  Ambrico Place, Auckland",
    "nb_items": 4,
    "equipment": "Junior module<br>Modern Modular<br>Springy Animal<br>Swing Double",
    "id": 22674,
    "url": "http://www.aucklandcity.govt.nz/whatson/places/parksonline/detail2.asp?pParkId=10159",
    "facilities": "playground",
    "about": "Local Park - Leisure"
  },
  {
    "name": "Anarahi Park",
    "long": "174.770101967706",
    "lat": "-36.9446633384991",
    "address": "16R Waterlea Avenue, Auckland",
    "nb_items": 2,
    "equipment": "Modern modular (large)<br>Swing unit",
    "id": 21308,
    "url": "http://www.aucklandcity.govt.nz/whatson/places/parksonline/detail2.asp?pParkId=10164",
    "facilities": "playground",
    "about": "Local Park - Leisure"
  },
  {
    "name": "Anderson Park",
    "long": "174.708645914288",
    "lat": "-36.8922800010871",
    "address": "19A Preston Avenue, Auckland",
    "nb_items": 2,
    "equipment": "Dome<br>Swings",
    "id": 10219,
    "url": "http://www.aucklandcity.govt.nz/whatson/places/parksonline/detail2.asp?pParkId=10167",
    "facilities": "",
    "about": "Local Park - Leisure"
  },
  {
    "name": "Anderson Park",
    "long": "174.708645914288",
    "lat": "-36.8922800010871",
    "address": "19A Preston Avenue, Auckland",
    "nb_items": 2,
    "equipment": "Dome<br>Swings",
    "id": 10219,
    "url": "http://www.aucklandcity.govt.nz/whatson/places/parksonline/detail2.asp?pParkId=70",
    "facilities": "Playground",
    "about": "Local green open space."
  },
  {
    "name": "Anderson Park (Grand Vue Road Reserve)",
    "long": "174.89301277276",
    "lat": "-37.012757752478",
    "address": "58R Grande Vue Road, Auckland",
    "nb_items": 2,
    "equipment": "Modern Modular (Large)<br>Swing",
    "id": 20570,
    "url": "",
    "facilities": "",
    "about": ""
  },
  {
    "name": "Annison Green",
    "long": "174.642011521303",
    "lat": "-36.9257891974947",
    "address": "5 Annison Avenue, Auckland",
    "nb_items": 4,
    "equipment": "Modern Modular<br>Single Seesaw<br>Single Slide<br>Swing Double",
    "id": 22675,
    "url": "http://www.aucklandcity.govt.nz/whatson/places/parksonline/detail2.asp?pParkId=10172",
    "facilities": "playground",
    "about": "Local Park - Leisure"
  },
  {
    "name": "Aramoana Reserve",
    "long": "174.785068063481",
    "lat": "-36.8171045564736",
    "address": "76 Aramoana Avenue, Auckland",
    "nb_items": 2,
    "equipment": "Slide<br>Swing",
    "id": 20447,
    "url": "http://www.aucklandcity.govt.nz/whatson/places/parksonline/detail2.asp?pParkId=10180",
    "facilities": "playground",
    "about": "Local Park - Coastal"
  },
  {
    "name": "Arch Hill Scenic Reserve",
    "long": "174.736464041858",
    "lat": "-36.8677322865492",
    "address": "89 Ivanhoe Road, Auckland",
    "nb_items": 3,
    "equipment": "Dome<br>Module<br>Swings",
    "id": 21356,
    "url": "http://www.aucklandcity.govt.nz/whatson/places/parksonline/detail2.asp?pParkId=100",
    "facilities": "There are two mountain bike trails in the reserve for riders to enjoy mountain biking in the heart of the city. 'Training Wheels' is a beginner trail for families and riders of all ages. 'Twist and Shout' is an intermediate trail for more advanced riders.",
    "about": "Scenic reserve with walkway linking Ivanhoe Road, Great North Road and Bond Street."
  },
  {
    "name": "Ariki Reserve",
    "long": "174.729510821591",
    "lat": "-36.4179669470964",
    "address": "  Ariki Drive, Auckland",
    "nb_items": 1,
    "equipment": "Swing",
    "id": 22354,
    "url": "",
    "facilities": "",
    "about": ""
  },
  {
    "name": "Arline Schutz Park (Halver Park)",
    "long": "174.900753026586",
    "lat": "-37.0212236783548",
    "address": "39 Halver Road, Auckland",
    "nb_items": 2,
    "equipment": "Modern Modular (Small)<br>Swing",
    "id": 20812,
    "url": "",
    "facilities": "",
    "about": ""
  },
  {
    "name": "Arthur Faulkner Reserve",
    "long": "174.739904683405",
    "lat": "-36.8971733147625",
    "address": "33 Foch Avenue, Auckland",
    "nb_items": 6,
    "equipment": "Activity panels Xylophone<br>Buzzy Bee rocker<br>Hip Hop seesaw<br>Module<br>Spinning Frame<br>Swings",
    "id": 10377,
    "url": "http://www.aucklandcity.govt.nz/whatson/places/parksonline/detail2.asp?pParkId=115",
    "facilities": "Playground, tables",
    "about": "Local green open space."
  },
  {
    "name": "Arthur S Richards Memorial Park",
    "long": "174.749121478706",
    "lat": "-36.9030177508634",
    "address": "43 Parau Street, Auckland",
    "nb_items": 2,
    "equipment": "Module<br>Swing",
    "id": 20865,
    "url": "",
    "facilities": "",
    "about": ""
  },
  {
    "name": "Ascot Park",
    "long": "174.801651262182",
    "lat": "-36.8859884907092",
    "address": "61 Greenlane East Road, Auckland",
    "nb_items": 3,
    "equipment": "Module<br>Seesaw<br>Swing",
    "id": 23100,
    "url": "http://www.aucklandcity.govt.nz/whatson/places/parksonline/detail2.asp?pParkId=125",
    "facilities": "Playground",
    "about": "Small open space edged by trees and plants, and the corner of a busy area."
  },
  {
    "name": "Avondale Central Reserve",
    "long": "174.696567946958",
    "lat": "-36.8969466801376",
    "address": "1951 Great North Road, Auckland",
    "nb_items": 2,
    "equipment": "Modern Modular<br>Swing Double",
    "id": 10187,
    "url": "http://www.aucklandcity.govt.nz/whatson/places/parksonline/detail2.asp?pParkId=145",
    "facilities": "Playground",
    "about": ""
  },
  {
    "name": "Awaroa Park",
    "long": "174.645285873191",
    "lat": "-36.8971341600305",
    "address": "126 Awaroa Road, Auckland",
    "nb_items": 3,
    "equipment": "Modern Modular<br>Playground Track<br>Swing Quad",
    "id": 11432,
    "url": "http://www.aucklandcity.govt.nz/whatson/places/parksonline/detail2.asp?pParkId=10238",
    "facilities": "playground",
    "about": "Local Park - Leisure"
  },
  {
    "name": "Awhitu Hall",
    "long": "174.582050198086",
    "lat": "-37.0958416090971",
    "address": "15 Hamilton Road, Waiuku",
    "nb_items": 1,
    "equipment": "Seesaw",
    "id": 10568,
    "url": "",
    "facilities": "",
    "about": ""
  },
  {
    "name": "Babich Reserve",
    "long": "174.603483439939",
    "lat": "-36.8731953924472",
    "address": "98 Babich Road North, Auckland",
    "nb_items": 8,
    "equipment": "Modern Modular<br>Modern Modular<br>Spica<br>Spiral Net Climber<br>Springy Digger<br>Springy Dolphins<br>Springy Ladybird<br>Supernova<br>Swing Double<br>Swing Double",
    "id": 23367,
    "url": "",
    "facilities": "",
    "about": ""
  },
  {
    "name": "Baddeleys Beach Reserve",
    "long": "174.755760842048",
    "lat": "-36.3810154968714",
    "address": "1 Baddeleys Beach Road, Baddeleys Beach",
    "nb_items": 2,
    "equipment": "Module-Small<br>Swing",
    "id": 22445,
    "url": "http://www.aucklandcity.govt.nz/whatson/places/parksonline/detail2.asp?pParkId=10249",
    "facilities": "playground, toilets",
    "about": ""
  },
  {
    "name": "Bannerman Reserve",
    "long": "174.732950802169",
    "lat": "-36.8715504386348",
    "address": "24 Mountain View Road, Auckland",
    "nb_items": 3,
    "equipment": "Seesaw<br>Seesaw<br>Small module<br>Swing",
    "id": 20959,
    "url": "http://www.aucklandcity.govt.nz/whatson/places/parksonline/detail2.asp?pParkId=195",
    "facilities": "Playground",
    "about": "Local green open space."
  },
  {
    "name": "Barron Green",
    "long": "174.678879841568",
    "lat": "-36.9316156566069",
    "address": "1 Barron Drive, Auckland",
    "nb_items": 5,
    "equipment": "Junior module<br>Modern Modular Larg<br>Spinner<br>Springy Animal<br>Swing Quad",
    "id": 11455,
    "url": "http://www.aucklandcity.govt.nz/whatson/places/parksonline/detail2.asp?pParkId=10269",
    "facilities": "playground, toilets",
    "about": "Local Park - Leisure"
  },
  {
    "name": "Barrys Reserve",
    "long": "174.656846628338",
    "lat": "-36.884386069616",
    "address": "16 Barrys Road, Auckland",
    "nb_items": 3,
    "equipment": "Modern Modular<br>Single Seesaw<br>Swing Double",
    "id": 22637,
    "url": "http://www.aucklandcity.govt.nz/whatson/places/parksonline/detail2.asp?pParkId=10272",
    "facilities": "playground",
    "about": "Local Park - Leisure"
  },
  {
    "name": "Bath Street Reserve",
    "long": "174.805935081169",
    "lat": "-36.8200746664091",
    "address": "2 Bath Street, North Shore",
    "nb_items": 3,
    "equipment": "Seesaw-Spring<br>Slide<br>Swing",
    "id": 20026,
    "url": "http://www.aucklandcity.govt.nz/whatson/places/parksonline/detail2.asp?pParkId=10275",
    "facilities": "playground, toilets",
    "about": "Local Park - Coastal"
  },
  {
    "name": "Bayside Drive",
    "long": "174.737695507984",
    "lat": "-36.7240362092989",
    "address": "7 Crestview Place, Auckland",
    "nb_items": 6,
    "equipment": "Module-Small<br>Spinner bowl<br>Spinner<br>Swing<br>Swing hammock large rope<br>Swing-Hammock-small black",
    "id": 22074,
    "url": "",
    "facilities": "",
    "about": ""
  },
  {
    "name": "Bayswater Park",
    "long": "174.782255312746",
    "lat": "-36.8127428270606",
    "address": "131 Bayswater Avenue, Auckland",
    "nb_items": 6,
    "equipment": "Fitness device<br>Body curl<br>Log jump<br>Fitness device<br>Fitness device<br>Step-up<br>Module-Medium<br>Swing",
    "id": 11141,
    "url": "http://www.aucklandcity.govt.nz/whatson/places/parksonline/detail2.asp?pParkId=10282",
    "facilities": "playground, toilets",
    "about": "Local Park - Sport"
  },
  {
    "name": "Belle Verde Reserve",
    "long": "174.741925078648",
    "lat": "-36.7483119629673",
    "address": "10 Belle Verde Drive, Auckland",
    "nb_items": 2,
    "equipment": "Module-Medium-Jnr<br>Swing",
    "id": 20846,
    "url": "http://www.aucklandcity.govt.nz/whatson/places/parksonline/detail2.asp?pParkId=10301",
    "facilities": "playground",
    "about": "Local Park - Leisure"
  },
  {
    "name": "Bellevue Reserve",
    "long": "174.752806616886",
    "lat": "-36.8738512848997",
    "address": "160 Dominion Road, Auckland",
    "nb_items": 3,
    "equipment": "Module<br>Rotating Net<br>Swings",
    "id": 21015,
    "url": "http://www.aucklandcity.govt.nz/whatson/places/parksonline/detail2.asp?pParkId=240",
    "facilities": "Playground, tables",
    "about": "Local green open space."
  },
  {
    "name": "Bellgrove Reserve West",
    "long": "174.684164269455",
    "lat": "-36.8942604862314",
    "address": "15A Bellgrove Place, Auckland",
    "nb_items": 3,
    "equipment": "Roundabout<br>Single Slide<br>Swing Double",
    "id": 21636,
    "url": "",
    "facilities": "",
    "about": ""
  },
  {
    "name": "Belmont Rose Gardens",
    "long": "174.790292311786",
    "lat": "-36.8074317068854",
    "address": "152 Lake Road, Auckland",
    "nb_items": 2,
    "equipment": "Module-Medium<br>Swing",
    "id": 23311,
    "url": "",
    "facilities": "",
    "about": ""
  },
  {
    "name": "Bert Henham Park",
    "long": "174.841755063922",
    "lat": "-36.9321891139382",
    "address": "645 Mount Wellington Highway, Auckland",
    "nb_items": 4,
    "equipment": "Module<br>Slide<br>Spinner<br>Swing",
    "id": 21705,
    "url": "http://www.aucklandcity.govt.nz/whatson/places/parksonline/detail2.asp?pParkId=245",
    "facilities": "To the east of Mt Richmond are the McLennan Hills, small cones also in a larger explosion crater which produced much lava in flows towards both the Manukau Harbour and Tamaki River. These two volcanoes, together with Sturges Park at Otahuhu, form a dam separating the waters of the Waitemata and Manukau Harbours.",
    "about": "Mt Richmond is a recorded archaeological site. It is a 'castle and moat' volcano in which the scoria mount (castle) lies against one wall of the moat."
  },
  {
    "name": "Berwyn Reserve",
    "long": "174.934420133035",
    "lat": "-37.0343080924581",
    "address": "50R Berwyn Avenue, Auckland",
    "nb_items": 2,
    "equipment": "Modern Modular (Large)<br>Swing",
    "id": 21476,
    "url": "",
    "facilities": "",
    "about": ""
  },
  {
    "name": "Bill Moir Reserve",
    "long": "174.637529326458",
    "lat": "-36.7796641527519",
    "address": "64 Waimarie Road, Auckland",
    "nb_items": 2,
    "equipment": "Module<br>Swing",
    "id": 22649,
    "url": "http://www.aucklandcity.govt.nz/whatson/places/parksonline/detail2.asp?pParkId=10319",
    "facilities": "playground, toilets",
    "about": "Local Park - Leisure"
  },
  {
    "name": "Bledisloe Park - Franklin",
    "long": "174.903335842428",
    "lat": "-37.2052392413173",
    "address": "86 Queen Street, Pukekohe",
    "nb_items": 7,
    "equipment": "Logs<br>Modern Modular (Large)<br>Rocktopus<br>Roundabout - Sit On<br>Springy Animal<br>SKAT<br>Rail<br>Rail",
    "id": 10531,
    "url": "",
    "facilities": "",
    "about": ""
  },
  {
    "name": "Blockhouse Bay Beach Reserve",
    "long": "174.70057642544",
    "lat": "-36.9303854876661",
    "address": "69 Endeavour Street, Auckland",
    "nb_items": 8,
    "equipment": "Eagle's Nest<br>Mulberry Bush<br>Ship Bow<br>Ship Stern<br>Slide Long<br>Springy Animal<br>Swing Double<br>Swing Double-Junior",
    "id": 10391,
    "url": "http://www.aucklandcity.govt.nz/whatson/places/parksonline/detail2.asp?pParkId=280",
    "facilities": "Barbecue, tables, playground, boatramp, toilets.",
    "about": "Heritage sites with a lot of history (Maori/European). Seawall built about 80 years ago. Lovely reserve for a picnic."
  },
  {
    "name": "Blockhouse Bay Recreation Res",
    "long": "174.70755070203",
    "lat": "-36.9175190665066",
    "address": "31 Terry Street, Auckland",
    "nb_items": 19,
    "equipment": "Fitness Station Balance Beam<br>Fitness Station-Chin-Up Bars<br>Fitness Station-Climbing Wall<br>Fitness Station-Dip Crunch & Cycle<br>Fitness Station-Leg Press & Sit-up Bench<br>Fitness Station-Leg Stretch<br>Fitness Station-Monkey Bars<br>Fitness Station-Muscle Blaster<br>Fitness Station-Parallel Bars<br>Fitness Station-Pull Down Ex & Rec Cycle<br>Fitness Station-Push-Up Bars<br>Fitness Station-Steps<br>Fitness Station-Stretch & Air Walker<br>Fitness Station-Vertical Ladder<br>Junior Module<br>Pommel Swing<br>Senior Module<br>Swing Double<br>Swing Double<br>Swing Quad",
    "id": 10368,
    "url": "",
    "facilities": "",
    "about": ""
  },
  {
    "name": "Bluebird Reserve",
    "long": "174.70871313621",
    "lat": "-36.7548560491036",
    "address": "82 Bluebird Crescent, Auckland",
    "nb_items": 2,
    "equipment": "Module-Medium-Jnr<br>Swing",
    "id": 22301,
    "url": "http://www.aucklandcity.govt.nz/whatson/places/parksonline/detail2.asp?pParkId=10345",
    "facilities": "playground",
    "about": "Local Park - Leisure"
  },
  {
    "name": "Blueridge Reserve",
    "long": "174.637021139823",
    "lat": "-36.8932440532653",
    "address": "34 Blueridge Close, Auckland",
    "nb_items": 4,
    "equipment": "Modern Modular<br>Spica<br>Springy Animal<br>Swing Double",
    "id": 21962,
    "url": "http://www.aucklandcity.govt.nz/whatson/places/parksonline/detail2.asp?pParkId=10346",
    "facilities": "playground",
    "about": "Local Park - Leisure"
  },
  {
    "name": "Bluestone Park",
    "long": "174.839066159319",
    "lat": "-36.8858481034592",
    "address": "14 Styak Street, Auckland",
    "nb_items": 9,
    "equipment": "Buzzy bee rocker<br>Car springy rocker<br>Climbing module<br>Dinosour rocker<br>Hags spiker<br>Module<br>Overhead spinner<br>Stepping stone logs<br>Swings",
    "id": 21190,
    "url": "",
    "facilities": "",
    "about": ""
  },
  {
    "name": "Boggust Park",
    "long": "174.814440217038",
    "lat": "-36.9548564080034",
    "address": "55R Lenore Road, Auckland",
    "nb_items": 6,
    "equipment": "Basket swing<br>Balancing walk<br>Embankment slide<br>Jungle gym<br>Stepping logs<br>Stepping logs<br>Swing Set",
    "id": 21651,
    "url": "http://www.aucklandcity.govt.nz/whatson/places/parksonline/detail2.asp?pParkId=10352",
    "facilities": "playground, toilets",
    "about": "Local Park - Sport"
  },
  {
    "name": "Bond Reserve - Forrest Hill",
    "long": "174.745014673818",
    "lat": "-36.7729253810758",
    "address": "43 Bond Crescent, Forrest Hill",
    "nb_items": 5,
    "equipment": "Module-Medium-Jnr<br>Module medium (senior)<br>Seesaw spinner<br>Seesaw-Spring<br>Swing",
    "id": 11064,
    "url": "",
    "facilities": "",
    "about": ""
  },
  {
    "name": "Bonnie Brae Reserve",
    "long": "174.821512329686",
    "lat": "-36.8715815906149",
    "address": "10 Bonnie Brae Road, Auckland",
    "nb_items": 2,
    "equipment": "Module<br>Swing",
    "id": 23084,
    "url": "http://www.aucklandcity.govt.nz/whatson/places/parksonline/detail2.asp?pParkId=295",
    "facilities": "Playground",
    "about": "Local green open space."
  },
  {
    "name": "Bourne Dean Recreation Reserve",
    "long": "174.551146243391",
    "lat": "-36.4045018554151",
    "address": "903 Kaipara Flats Road, Kaipara Flats",
    "nb_items": 2,
    "equipment": "Module-Medium<br>Swing",
    "id": 11222,
    "url": "",
    "facilities": "",
    "about": ""
  },
  {
    "name": "Braemar Reserve",
    "long": "174.713378502262",
    "lat": "-36.8816705471492",
    "address": "192 Carrington Road, Auckland",
    "nb_items": 3,
    "equipment": "Module<br>Springy seesaw<br>Swing T bar",
    "id": 21173,
    "url": "http://www.aucklandcity.govt.nz/whatson/places/parksonline/detail2.asp?pParkId=305",
    "facilities": "Playground, table",
    "about": "Local green open space."
  },
  {
    "name": "Brains Park",
    "long": "174.664055826157",
    "lat": "-36.8959006576406",
    "address": "31 Vanguard Road, Auckland",
    "nb_items": 3,
    "equipment": "Modern Modular<br>Playground Track<br>Swing Double",
    "id": 11430,
    "url": "http://www.aucklandcity.govt.nz/whatson/places/parksonline/detail2.asp?pParkId=10373",
    "facilities": "playground, toilets",
    "about": "Premier Park - Sport"
  },
  {
    "name": "Bramley Drive Reserve",
    "long": "174.881481418576",
    "lat": "-36.8916813341395",
    "address": "94R Bramley Drive, Auckland",
    "nb_items": 1,
    "equipment": "Swing",
    "id": 10754,
    "url": "http://www.aucklandcity.govt.nz/whatson/places/parksonline/detail2.asp?pParkId=10374",
    "facilities": "playground, toilets",
    "about": "Esplanade"
  },
  {
    "name": "Brandon Reserve - Manly",
    "long": "174.764978791218",
    "lat": "-36.6331882353218",
    "address": "15 Brandon Road, Auckland",
    "nb_items": 2,
    "equipment": "Module-Medium-With Track Ride<br>Swing",
    "id": 20496,
    "url": "",
    "facilities": "",
    "about": ""
  },
  {
    "name": "Bridge Avenue Reserve",
    "long": "174.655260715922",
    "lat": "-36.8606623539887",
    "address": "  Bridge Avenue, Auckland",
    "nb_items": 2,
    "equipment": "Modern Modular<br>Swing Double",
    "id": 22639,
    "url": "http://www.aucklandcity.govt.nz/whatson/places/parksonline/detail2.asp?pParkId=10380",
    "facilities": "playground, toilets",
    "about": "Local Park - Leisure"
  },
  {
    "name": "Bronzewing Reserve",
    "long": "174.71444365436",
    "lat": "-36.7614405164075",
    "address": "7A Bronzewing Terrace, Auckland",
    "nb_items": 8,
    "equipment": "Interactive play hut<br>Module-Junior small<br>rope walk<br>Snr climber with panels<br>spinner<br>Spinner pole small<br>springy skateboard<br>Basket Swing",
    "id": 22304,
    "url": "http://www.aucklandcity.govt.nz/whatson/places/parksonline/detail2.asp?pParkId=10387",
    "facilities": "playground",
    "about": "Local Park - Leisure"
  },
  {
    "name": "Brown Reserve",
    "long": "174.745493561282",
    "lat": "-36.8564948483995",
    "address": "14 Brown Street, Auckland",
    "nb_items": 1,
    "equipment": "Swings T bar",
    "id": 21400,
    "url": "http://www.aucklandcity.govt.nz/whatson/places/parksonline/detail2.asp?pParkId=310",
    "facilities": "Playground",
    "about": "Local green open space."
  },
  {
    "name": "Browns Bay Beach Reserve",
    "long": "174.749476583629",
    "lat": "-36.714042057646",
    "address": "3 Manly Esplanade, Auckland",
    "nb_items": 5,
    "equipment": "Module-Large<br>Spinner<br>Swing snr<br>Swing basket<br>Walkway Wobbly Walk Deck",
    "id": 11092,
    "url": "",
    "facilities": "",
    "about": ""
  },
  {
    "name": "Bruce Mclaren Memorial Park",
    "long": "174.620865671524",
    "lat": "-36.8981369857348",
    "address": "27 Farwood Drive, Auckland",
    "nb_items": 4,
    "equipment": "Fitness Station<br>Modern Modular<br>Springy Animal<br>Swing Double",
    "id": 11431,
    "url": "http://www.aucklandcity.govt.nz/whatson/places/parksonline/detail2.asp?pParkId=10399",
    "facilities": "playground",
    "about": "Local Park - Leisure"
  },
  {
    "name": "Brunton Park Reserve",
    "long": "174.69031206761",
    "lat": "-36.5802515784597",
    "address": "17A West Hoe Road, Orewa",
    "nb_items": 2,
    "equipment": "Module-Small-Jnr<br>Swing",
    "id": 20413,
    "url": "http://www.aucklandcity.govt.nz/whatson/places/parksonline/detail2.asp?pParkId=10402",
    "facilities": "playground",
    "about": ""
  },
  {
    "name": "Brydon Place Reserve",
    "long": "174.709318379304",
    "lat": "-36.9001738971645",
    "address": "16 Brydon Place, Auckland",
    "nb_items": 7,
    "equipment": "Climbing Square<br>Hip Hop<br>Modern Modular<br>Spica<br>Stepping Logs<br>Supernova<br>Swing Quad",
    "id": 21649,
    "url": "http://www.aucklandcity.govt.nz/whatson/places/parksonline/detail2.asp?pParkId=10404",
    "facilities": "playground",
    "about": ""
  },
  {
    "name": "Brydon Place Reserve",
    "long": "174.709318379304",
    "lat": "-36.9001738971645",
    "address": "16 Brydon Place, Auckland",
    "nb_items": 7,
    "equipment": "Climbing Square<br>Hip Hop<br>Modern Modular<br>Spica<br>Stepping Logs<br>Supernova<br>Swing Quad",
    "id": 21649,
    "url": "http://www.aucklandcity.govt.nz/whatson/places/parksonline/detail2.asp?pParkId=320",
    "facilities": "Playground",
    "about": "Local green open space."
  },
  {
    "name": "Brylee Drive Reserve",
    "long": "174.909909256335",
    "lat": "-37.04358809378",
    "address": "12R Brylee Drive, Auckland",
    "nb_items": 3,
    "equipment": "Modern Modular (Small)<br>Swing<br>Roctopus",
    "id": 21819,
    "url": "http://www.aucklandcity.govt.nz/whatson/places/parksonline/detail2.asp?pParkId=10405",
    "facilities": "playground",
    "about": "Local Park - Leisure"
  },
  {
    "name": "Buchanan Park",
    "long": "174.792664292865",
    "lat": "-36.920770347244",
    "address": "203A Arthur Street, Auckland",
    "nb_items": 2,
    "equipment": "Module<br>Rocktopus",
    "id": 21481,
    "url": "http://www.aucklandcity.govt.nz/whatson/places/parksonline/detail2.asp?pParkId=325",
    "facilities": "Playground",
    "about": "Local green open space."
  },
  {
    "name": "Buckingham Common",
    "long": "174.625850339583",
    "lat": "-36.8204211746108",
    "address": "  Buisson Glade, Auckland",
    "nb_items": 4,
    "equipment": "Fort/Slide<br>Modern Modular<br>Playground Track<br>Swing Triple",
    "id": 22507,
    "url": "http://www.aucklandcity.govt.nz/whatson/places/parksonline/detail2.asp?pParkId=10407",
    "facilities": "playground",
    "about": "Local Park - Leisure"
  },
  {
    "name": "Buckley Road Reserve",
    "long": "174.764360206342",
    "lat": "-36.907814765583",
    "address": "52 Buckley Road, Auckland",
    "nb_items": 5,
    "equipment": "Jungle Cube<br>Junior Rocker<br>Module<br>Roundabout spinner<br>Swings",
    "id": 10244,
    "url": "",
    "facilities": "",
    "about": ""
  },
  {
    "name": "Burswood Park",
    "long": "174.895806963353",
    "lat": "-36.9216775388295",
    "address": "170R Burswood Drive, Auckland",
    "nb_items": 3,
    "equipment": "Modern Modular (Large)<br>Modern Modular (Small)<br>Swing",
    "id": 21791,
    "url": "http://www.aucklandcity.govt.nz/whatson/places/parksonline/detail2.asp?pParkId=10420",
    "facilities": "playground",
    "about": "Local Park - Leisure"
  },
  {
    "name": "Burundi Ave Foreshore",
    "long": "174.857805561772",
    "lat": "-37.0261308576812",
    "address": "99R Finlayson Avenue, Auckland",
    "nb_items": 4,
    "equipment": "Fitness device<br>Arms&abs<br>Arms&abs<br>Legs&abs<br>Legs&arms",
    "id": 21661,
    "url": "",
    "facilities": "",
    "about": ""
  },
  {
    "name": "Bushlands Park",
    "long": "174.711750667145",
    "lat": "-36.7369576834358",
    "address": "34 Bushlands Park Drive, Auckland",
    "nb_items": 2,
    "equipment": "Module-Medium<br>Swing",
    "id": 22250,
    "url": "",
    "facilities": "",
    "about": ""
  },
  {
    "name": "Cadness Loop",
    "long": "174.74881745589",
    "lat": "-36.798111214926",
    "address": "96 Cadness Street, Auckland",
    "nb_items": 4,
    "equipment": "Module-Large<br>Seesaw<br>Spacenet<br>Swing",
    "id": 22132,
    "url": "http://www.aucklandcity.govt.nz/whatson/places/parksonline/detail2.asp?pParkId=10435",
    "facilities": "playground",
    "about": "Local Park - Leisure"
  },
  {
    "name": "Cadness Reserve",
    "long": "174.747374626426",
    "lat": "-36.8003898199388",
    "address": "6 Cadness Street, Auckland",
    "nb_items": 5,
    "equipment": "Airwalker<br>Cross Trainer<br>Fitness dipper<br>Module-Small<br>Swing",
    "id": 22135,
    "url": "http://www.aucklandcity.govt.nz/whatson/places/parksonline/detail2.asp?pParkId=10436",
    "facilities": "playground, toilets",
    "about": "Local Park - Leisure"
  },
  {
    "name": "Cairnbrae Reserve",
    "long": "174.728998182865",
    "lat": "-36.7067984667056",
    "address": "24 Cairnbrae Court, Auckland",
    "nb_items": 6,
    "equipment": "Module-Medium<br>Module<br>Slide<br>Springy bird<br>Swing basket<br>Swing",
    "id": 22098,
    "url": "http://www.aucklandcity.govt.nz/whatson/places/parksonline/detail2.asp?pParkId=10437",
    "facilities": "playground",
    "about": "Local Park - Leisure"
  },
  {
    "name": "Camelot Reserve",
    "long": "174.725871673268",
    "lat": "-36.7811499302529",
    "address": "38 Camelot Place, Auckland",
    "nb_items": 4,
    "equipment": "Seesaw<br>Slide<br>Swing<br>Swing snr",
    "id": 22256,
    "url": "http://www.aucklandcity.govt.nz/whatson/places/parksonline/detail2.asp?pParkId=10445",
    "facilities": "playground",
    "about": "Local Park - Leisure"
  },
  {
    "name": "Campbells Beach Reserve",
    "long": "174.765103125355",
    "lat": "-36.3829703431582",
    "address": "4 Campbell Road, Auckland",
    "nb_items": 2,
    "equipment": "Module-Large<br>Swing",
    "id": 22448,
    "url": "http://www.aucklandcity.govt.nz/whatson/places/parksonline/detail2.asp?pParkId=10448",
    "facilities": "playground, toilets",
    "about": ""
  },
  {
    "name": "Canal Reserve",
    "long": "174.689116900396",
    "lat": "-36.8936236333671",
    "address": "   ,  ",
    "nb_items": 1,
    "equipment": "Swing Double",
    "id": 10279,
    "url": "http://www.aucklandcity.govt.nz/whatson/places/parksonline/detail2.asp?pParkId=10449",
    "facilities": "playground",
    "about": ""
  },
  {
    "name": "Cargill Reserve",
    "long": "174.96417209212",
    "lat": "-37.0549004102637",
    "address": "91R Cargill Street, Auckland",
    "nb_items": 3,
    "equipment": "Modern Modular (Small)<br>Swing<br>Swing<br>Spinner",
    "id": 21715,
    "url": "http://www.aucklandcity.govt.nz/whatson/places/parksonline/detail2.asp?pParkId=10457",
    "facilities": "playground",
    "about": "Local Park - Leisure"
  },
  {
    "name": "Carisbrook Reserve",
    "long": "174.966049428039",
    "lat": "-37.0647829304733",
    "address": "152 Dominion Road, Auckland",
    "nb_items": 4,
    "equipment": "Modern Modular (Small)<br>Swing<br>Swing basket<br>Tube Slide and Tower",
    "id": 21723,
    "url": "http://www.aucklandcity.govt.nz/whatson/places/parksonline/detail2.asp?pParkId=10459",
    "facilities": "playground",
    "about": "Local Park - Leisure"
  },
  {
    "name": "Castor Bay Beach Reserve",
    "long": "174.767882050991",
    "lat": "-36.7596903243864",
    "address": "3 The Esplanade, Castor Bay",
    "nb_items": 1,
    "equipment": "Module-Medium",
    "id": 20052,
    "url": "http://www.aucklandcity.govt.nz/whatson/places/parksonline/detail2.asp?pParkId=10473",
    "facilities": "playground",
    "about": "Local Park - Coastal"
  },
  {
    "name": "Celeste Reserve",
    "long": "174.73292261774",
    "lat": "-36.7681524446191",
    "address": "15 Celeste Place, Auckland",
    "nb_items": 3,
    "equipment": "Seesaw-Spring<br>Slide<br>Swing",
    "id": 20815,
    "url": "http://www.aucklandcity.govt.nz/whatson/places/parksonline/detail2.asp?pParkId=10479",
    "facilities": "playground",
    "about": "Local Park - Leisure"
  },
  {
    "name": "Celtic Crescent Reserve",
    "long": "174.822258454647",
    "lat": "-36.8902271391607",
    "address": "112 Celtic Crescent, Auckland",
    "nb_items": 3,
    "equipment": "Large module<br>Spica<br>Swing T bar",
    "id": 23080,
    "url": "http://www.aucklandcity.govt.nz/whatson/places/parksonline/detail2.asp?pParkId=365",
    "facilities": "Playground",
    "about": "This reserve has been developed as an adventure playground for children. The reserve performs a purely local function for casual, active and passive recreation, mainly for children. A number of native and exotic trees, and shrubs have been planted on this reserve."
  },
  {
    "name": "Centennial Park",
    "long": "174.749716793279",
    "lat": "-36.893277462228",
    "address": "90A Marsden Avenue, Auckland",
    "nb_items": 4,
    "equipment": "Module<br>Roundabout<br>Springy rocker<br>Swings",
    "id": 10178,
    "url": "http://www.aucklandcity.govt.nz/whatson/places/parksonline/detail2.asp?pParkId=10483",
    "facilities": "playground",
    "about": "Esplanade"
  },
  {
    "name": "Centennial Park",
    "long": "174.749716793279",
    "lat": "-36.893277462228",
    "address": "90A Marsden Avenue, Auckland",
    "nb_items": 4,
    "equipment": "Module<br>Roundabout<br>Springy rocker<br>Swings",
    "id": 10178,
    "url": "http://www.aucklandcity.govt.nz/whatson/places/parksonline/detail2.asp?pParkId=370",
    "facilities": "Playground, tables, toilets.",
    "about": "Local green open space."
  },
  {
    "name": "Centennial Park - Waiuku",
    "long": "174.732097397897",
    "lat": "-37.2492081593826",
    "address": "14 Kitchener Road, Auckland",
    "nb_items": 3,
    "equipment": "Balancing bars<br>Modern modular (large)<br>Swing unit",
    "id": 10563,
    "url": "",
    "facilities": "",
    "about": ""
  },
  {
    "name": "Centorian Reserve",
    "long": "174.73836683409",
    "lat": "-36.7427203420877",
    "address": "2 Centorian Drive, Auckland",
    "nb_items": 3,
    "equipment": "Slide<br>Swing<br>Turnstile",
    "id": 22194,
    "url": "http://www.aucklandcity.govt.nz/whatson/places/parksonline/detail2.asp?pParkId=10484",
    "facilities": "playground",
    "about": "Local Park - Leisure"
  },
  {
    "name": "Ceramco Park",
    "long": "174.65038875628",
    "lat": "-36.9200273001558",
    "address": "  Glendale Road, Auckland",
    "nb_items": 4,
    "equipment": "Double Seesaw<br>Modern Modular<br>Playground Track<br>Swing Quad",
    "id": 11471,
    "url": "http://www.aucklandcity.govt.nz/whatson/places/parksonline/detail2.asp?pParkId=10489",
    "facilities": "playground, toilets",
    "about": "Children will enjoy open fields for ball games or kite flying, a playground, a skate park and gentle paths for bike riding. There is a short 15-minute walk along a beautifully planted streamside track to Kaurilands Domain."
  },
  {
    "name": "Challen Reserve",
    "long": "174.913493637086",
    "lat": "-37.0396903854058",
    "address": "2R Challen Close, Auckland",
    "nb_items": 5,
    "equipment": "Modern Modular (Large)<br>Slide<br>Swing<br>Swing<br>Small Roundabout<br>Springy thing",
    "id": 23074,
    "url": "http://www.aucklandcity.govt.nz/whatson/places/parksonline/detail2.asp?pParkId=10490",
    "facilities": "playground",
    "about": "Local Park - Leisure"
  },
  {
    "name": "Chalmers Reserve",
    "long": "174.699143411509",
    "lat": "-36.9008644699936",
    "address": "22 Chalmers Street, Auckland",
    "nb_items": 3,
    "equipment": "Modern Modular<br>Springer Double<br>Swing Double",
    "id": 21517,
    "url": "http://www.aucklandcity.govt.nz/whatson/places/parksonline/detail2.asp?pParkId=375",
    "facilities": "Barbecue, tables, playground, boardwalk, pond",
    "about": "Local green open space."
  },
  {
    "name": "Chatham Hill Reserve",
    "long": "174.800856257559",
    "lat": "-36.6206833093672",
    "address": "15 Cape Cod Drive, Auckland",
    "nb_items": 3,
    "equipment": "Module-Medium-Medium<br>Seesaw-Springy<br>Swing",
    "id": 22606,
    "url": "http://www.aucklandcity.govt.nz/whatson/places/parksonline/detail2.asp?pParkId=10499",
    "facilities": "playground",
    "about": ""
  },
  {
    "name": "Christmas Beach",
    "long": "174.659019187173",
    "lat": "-36.7771427695296",
    "address": "86 The Terrace, Auckland",
    "nb_items": 3,
    "equipment": "Module-Medium-Boat<br>Spinner<br>Swing",
    "id": 22512,
    "url": "http://www.aucklandcity.govt.nz/whatson/places/parksonline/detail2.asp?pParkId=10514",
    "facilities": "BBQ,playground, toilets",
    "about": "A coastal reserve perfect for a quiet day in the sun or kayak in the harbour waters."
  },
  {
    "name": "Church Hill Reserve",
    "long": "174.664477887616",
    "lat": "-36.4013801352728",
    "address": "3 Church Hill, Warkworth",
    "nb_items": 2,
    "equipment": "Module-Large<br>Swing",
    "id": 22374,
    "url": "http://www.aucklandcity.govt.nz/whatson/places/parksonline/detail2.asp?pParkId=10515",
    "facilities": "playground",
    "about": ""
  },
  {
    "name": "Clare Place Reserve",
    "long": "174.804960137159",
    "lat": "-36.9531614336244",
    "address": "2R Clare Place, Auckland",
    "nb_items": 4,
    "equipment": "Basket swing set<br>Climbing poles<br>Double slide<br>Wobbly bridge",
    "id": 23186,
    "url": "",
    "facilities": "",
    "about": ""
  },
  {
    "name": "Clarence Reserve",
    "long": "174.656564218159",
    "lat": "-36.9269093460538",
    "address": "  Chamari Close, Auckland",
    "nb_items": 2,
    "equipment": "Modern Modular<br>Swing Double",
    "id": 22514,
    "url": "http://www.aucklandcity.govt.nz/whatson/places/parksonline/detail2.asp?pParkId=10523",
    "facilities": "playground",
    "about": "Local Park - Leisure"
  },
  {
    "name": "Claris Playground",
    "long": "175.466670032336",
    "lat": "-36.2432799323706",
    "address": "80 Hector Sanderson Road, Great Barrier Island",
    "nb_items": 6,
    "equipment": "Climbing module<br>Module<br>Module<br>Slide<br>Springy animal<br>Swing<br>Xylophone",
    "id": 10425,
    "url": "",
    "facilities": "",
    "about": ""
  },
  {
    "name": "Clarks Beach Boat Ramp",
    "long": "174.689063866553",
    "lat": "-37.1403637048631",
    "address": "  Torkar Road, Auckland",
    "nb_items": 2,
    "equipment": "Modern Modular (Small)<br>Swing",
    "id": 10529,
    "url": "",
    "facilities": "",
    "about": ""
  },
  {
    "name": "Clavoy Park",
    "long": "174.908120725829",
    "lat": "-36.9470836288554",
    "address": "5R Clavoy Place, Auckland",
    "nb_items": 6,
    "equipment": "Swing Unit<br>Large modular<br>Roundabout<br>Slide<br>Spinning Cup<br>Spinning Cup<br>Swing unit",
    "id": 20907,
    "url": "http://www.aucklandcity.govt.nz/whatson/places/parksonline/detail2.asp?pParkId=10533",
    "facilities": "playground",
    "about": "Local Park - Leisure"
  },
  {
    "name": "Clendon Community Centre Reserve",
    "long": "174.865939516101",
    "lat": "-37.0336850013853",
    "address": "17R Palmers Road, Auckland",
    "nb_items": 1,
    "equipment": "Kompan Saturn (Rotating See Saw)",
    "id": 10717,
    "url": "",
    "facilities": "",
    "about": ""
  },
  {
    "name": "Clevedon Scenic Reserve",
    "long": "175.036719468773",
    "lat": "-36.9872673757913",
    "address": "30R Thorps Quarry Road, Auckland",
    "nb_items": 4,
    "equipment": "Rope Bridges<br>Balancing Beams<br>Monkey Bars<br>Swing Rope",
    "id": 10779,
    "url": "",
    "facilities": "",
    "about": ""
  },
  {
    "name": "Cliff Face Park",
    "long": "174.83951806491",
    "lat": "-36.8889024187944",
    "address": "25 Guard Crescent, Auckland",
    "nb_items": 1,
    "equipment": "Rope swing",
    "id": 21194,
    "url": "",
    "facilities": "",
    "about": ""
  },
  {
    "name": "Clydesdale Park",
    "long": "174.931073174925",
    "lat": "-36.9167283466253",
    "address": "16R Leicester Parade, Auckland",
    "nb_items": 4,
    "equipment": "Modern Modular (Large)<br>Soccer Goalpost Nets<br>Soccer Goalpost Nets<br>Spring Saw<br>Swing",
    "id": 20246,
    "url": "http://www.aucklandcity.govt.nz/whatson/places/parksonline/detail2.asp?pParkId=10557",
    "facilities": "playground",
    "about": "Local Park - Leisure"
  },
  {
    "name": "Coletta Esplanade",
    "long": "174.637426636143",
    "lat": "-36.8637304975563",
    "address": "  Central Park Drive, Waitakere",
    "nb_items": 1,
    "equipment": "Fitness Station-Step & Reach & Chin Up",
    "id": 11426,
    "url": "",
    "facilities": "",
    "about": ""
  },
  {
    "name": "Colin Lawrie Fields",
    "long": "174.912414719586",
    "lat": "-37.1936295593331",
    "address": "  Reynolds Road, Auckland",
    "nb_items": 2,
    "equipment": "Modern Modular (Large)<br>Swing Unit",
    "id": 10532,
    "url": "http://www.aucklandcity.govt.nz/whatson/places/parksonline/detail2.asp?pParkId=10568",
    "facilities": "playground",
    "about": "Local Park - Sport"
  },
  {
    "name": "Collins Park",
    "long": "174.6714526753",
    "lat": "-36.7751600155685",
    "address": "15 Greenhithe Road, Auckland",
    "nb_items": 4,
    "equipment": "Egg Spinner<br>Hammock<br>Module-Large<br>Swing",
    "id": 10936,
    "url": "http://www.aucklandcity.govt.nz/whatson/places/parksonline/detail2.asp?pParkId=10569",
    "facilities": "playground, toilets",
    "about": "Local Park - Sport"
  },
  {
    "name": "Commissariat Reserve",
    "long": "174.828127971543",
    "lat": "-36.9143878875386",
    "address": "82B Commissariat Road, Auckland",
    "nb_items": 3,
    "equipment": "Artificial turf mound<br>Lunar Spinner<br>Swings",
    "id": 23081,
    "url": "http://www.aucklandcity.govt.nz/whatson/places/parksonline/detail2.asp?pParkId=395",
    "facilities": "Playground",
    "about": "Local green open space."
  },
  {
    "name": "Connemara Reserve",
    "long": "174.641445274605",
    "lat": "-36.8035201045503",
    "address": "  Connemara Court, Auckland",
    "nb_items": 2,
    "equipment": "Module-Small-Jnr<br>Swing",
    "id": 22524,
    "url": "http://www.aucklandcity.govt.nz/whatson/places/parksonline/detail2.asp?pParkId=10576",
    "facilities": "playground",
    "about": "Premier Park - Leisure"
  },
  {
    "name": "Cooper - Lea Reserve",
    "long": "174.72846659988",
    "lat": "-36.6195207284293",
    "address": "17 Cooper Road, Auckland",
    "nb_items": 1,
    "equipment": "Swing mega",
    "id": 22405,
    "url": "",
    "facilities": "",
    "about": ""
  },
  {
    "name": "Copley Reserve",
    "long": "174.669807123162",
    "lat": "-36.9010376733461",
    "address": "38 Copley Street, Auckland",
    "nb_items": 3,
    "equipment": "Modern Modular<br>Single Slide<br>Swing Double",
    "id": 22525,
    "url": "http://www.aucklandcity.govt.nz/whatson/places/parksonline/detail2.asp?pParkId=10584",
    "facilities": "playground",
    "about": "Local Park - Leisure"
  },
  {
    "name": "Corban Reserve",
    "long": "174.623296374461",
    "lat": "-36.89321188587",
    "address": "130-136 Henderson Valley Road, Auckland",
    "nb_items": 6,
    "equipment": "Dog Agility Station-AFrame<br>Dog Agility Station-Bridge<br>Dog Agility Station-Hurdle<br>Dog Agility Station-Hurdle<br>Dog Agility Station-Jump Through Hurdle<br>Dog Agility Station-Tunnel<br>Dog Agility Station-Tunnel<br>Dog Agility Station-Weave Pole",
    "id": 11395,
    "url": "",
    "facilities": "",
    "about": ""
  },
  {
    "name": "Corran Reserve",
    "long": "174.602894003661",
    "lat": "-36.862236592504",
    "address": "  Corran Place, Auckland",
    "nb_items": 2,
    "equipment": "Modern Modular<br>Swing Double",
    "id": 22527,
    "url": "http://www.aucklandcity.govt.nz/whatson/places/parksonline/detail2.asp?pParkId=10596",
    "facilities": "playground",
    "about": "Local Park - Leisure"
  },
  {
    "name": "Costley Reserve",
    "long": "174.7461321878",
    "lat": "-36.8494120110617",
    "address": "3 Costley Street, Auckland",
    "nb_items": 4,
    "equipment": "Module<br>Seesaw<br>Spinner cup<br>Swing",
    "id": 21011,
    "url": "",
    "facilities": "",
    "about": ""
  },
  {
    "name": "Coxs Bay Reserve",
    "long": "174.725189241299",
    "lat": "-36.852040514685",
    "address": "44 West End Road, Auckland",
    "nb_items": 6,
    "equipment": "Dome Climber<br>Fitness Station<br>Fitness Station<br>Fitness Station<br>Fitness Station<br>Fitness Station<br>Module - large<br>Module - small<br>Monkey bars<br>Swings",
    "id": 10265,
    "url": "",
    "facilities": "",
    "about": ""
  },
  {
    "name": "Coyle Park",
    "long": "174.704756060053",
    "lat": "-36.8521421073104",
    "address": "528 Point Chevalier Road, Auckland",
    "nb_items": 12,
    "equipment": "Absail embankment<br>Activity Panel<br>Climbing rock<br>Flying Fox<br>Pyramid climbing net<br>Module<br>Module<br>Rope block activity<br>Roundabout<br>Slide<br>Springy skateboard<br>Springy skateboard<br>Swing T bar<br>Swing T bar<br>Train",
    "id": 10050,
    "url": "http://www.aucklandcity.govt.nz/whatson/places/parksonline/detail2.asp?pParkId=425",
    "facilities": "There is significant mature coastal vegetation along the cliff top. Defined, well-structured access paths lead from the park to Pt Chevalier beach, along with a number of informal access paths down the cliffside.",
    "about": "Coyle Park has an open environment covering nearly 5 hectares, fantastic harbour views and a coastal edge characterised by steep cliffs and rock shelf exposed at low tide."
  },
  {
    "name": "Craigavon Park",
    "long": "174.691493793203",
    "lat": "-36.9280881285016",
    "address": "82 Kinross Street, Auckland",
    "nb_items": 14,
    "equipment": "Fitness Station Chin Ups<br>Fitness Station-Dog Agility Course<br>Fitness Station-Monkey Bars<br>Fitness Station-Push Ups<br>Fitness Station-Side Jumps<br>Fitness Station-Side Vaults<br>Fitness Station-Sit Ups<br>Fitness Station-Step Ups<br>Fitness Station-Weaving Poles<br>Double Bay Swings<br>Modern Modular Jnr<br>Modern Modular Lge<br>Spinner<br>Springer",
    "id": 10431,
    "url": "http://www.aucklandcity.govt.nz/whatson/places/parksonline/detail2.asp?pParkId=430",
    "facilities": "The park caters for a range of informal recreational activities. A large grassed area on the western side contains a playground, barbecue and car park. Several tall tree specimens, mainly pine, are also dotted throughout this area.",
    "about": "Craigavon Park is bordered by Portage Road, Connell Street, Connaught Street and Kinross Street. It contains a diverse landscape that can be divided into approximately two-thirds regenerating native forest and one-third grassland. Its topography is flat to easy grade with the highest points located on the park boundaries."
  },
  {
    "name": "Cranston Street Reserve",
    "long": "174.734812213972",
    "lat": "-36.7063799639681",
    "address": "32 Cranston Street, Auckland",
    "nb_items": 2,
    "equipment": "Module-Medium-Jnr<br>Springy-4 seat",
    "id": 22125,
    "url": "http://www.aucklandcity.govt.nz/whatson/places/parksonline/detail2.asp?pParkId=10609",
    "facilities": "playground",
    "about": "Local Park - Leisure"
  },
  {
    "name": "Cron Reserve",
    "long": "174.647899700377",
    "lat": "-36.8845773775122",
    "address": "24 Tirimoana Road, Auckland",
    "nb_items": 3,
    "equipment": "Modern Modular<br>Spica<br>Swing Double",
    "id": 22502,
    "url": "http://www.aucklandcity.govt.nz/whatson/places/parksonline/detail2.asp?pParkId=10619",
    "facilities": "playground",
    "about": "Local Park - Leisure"
  },
  {
    "name": "Cross Street Reserve",
    "long": "174.959683257986",
    "lat": "-37.0579073598311",
    "address": "5R Cross Street, Auckland",
    "nb_items": 3,
    "equipment": "Spinner mice<br>Twister ring<br>Vertical ladder",
    "id": 20294,
    "url": "",
    "facilities": "",
    "about": ""
  },
  {
    "name": "Crossfield Reserve",
    "long": "174.867227488229",
    "lat": "-36.8643346389177",
    "address": "83 Crossfield Road, Auckland",
    "nb_items": 2,
    "equipment": "Module<br>Module<br>Swings",
    "id": 10408,
    "url": "http://www.aucklandcity.govt.nz/whatson/places/parksonline/detail2.asp?pParkId=435",
    "facilities": "Playground, boardwalk, drinking fountain, bike stands, toilets.",
    "about": "Huge sportspark catering to many recreational activities such as league and rugby in winter to baseball and softball in summer. The Glendowie Community Hall is adjacent to the park."
  },
  {
    "name": "Crown Park",
    "long": "174.879785073266",
    "lat": "-36.9651365319101",
    "address": "45R Cobham Crescent, Auckland",
    "nb_items": 3,
    "equipment": "Modern Modular (Large)<br>Spring Saw<br>Swing",
    "id": 20298,
    "url": "http://www.aucklandcity.govt.nz/whatson/places/parksonline/detail2.asp?pParkId=10623",
    "facilities": "playground",
    "about": "Local Park - Leisure"
  },
  {
    "name": "Crum Park",
    "long": "174.666229374636",
    "lat": "-36.9276906942211",
    "address": "  Hilling Street, Auckland",
    "nb_items": 4,
    "equipment": "Fort/Slide<br>Modern Modular<br>Single Seesaw<br>Swing Double<br>Swing Double",
    "id": 22482,
    "url": "http://www.aucklandcity.govt.nz/whatson/places/parksonline/detail2.asp?pParkId=10626",
    "facilities": "playground, toilets",
    "about": "A large open space surrounded by lush Waitakere bush."
  },
  {
    "name": "Cutler Reserve",
    "long": "174.68458531621",
    "lat": "-36.9226750683",
    "address": "15 Cutler Street, Auckland",
    "nb_items": 1,
    "equipment": "Swing Triple",
    "id": 22484,
    "url": "http://www.aucklandcity.govt.nz/whatson/places/parksonline/detail2.asp?pParkId=10631",
    "facilities": "playground",
    "about": "Local Park - Leisure"
  },
  {
    "name": "Cyril French Park",
    "long": "174.912000755537",
    "lat": "-36.9534781459691",
    "address": "6R Baverstock Road, Auckland",
    "nb_items": 1,
    "equipment": "Senior module",
    "id": 20247,
    "url": "http://www.aucklandcity.govt.nz/whatson/places/parksonline/detail2.asp?pParkId=10635",
    "facilities": "playground",
    "about": "Esplanade"
  },
  {
    "name": "D'Oyly/Stanmore Bay Weir Reserve",
    "long": "174.732418223202",
    "lat": "-36.6245853675359",
    "address": "63 Charlotte Street, Auckland",
    "nb_items": 5,
    "equipment": "Module-Large<br>Seesaw-Spring<br>Spinner pole<br>Spinner<br>Swing",
    "id": 22406,
    "url": "",
    "facilities": "",
    "about": ""
  },
  {
    "name": "Da Vinci Park",
    "long": "174.638295770487",
    "lat": "-36.8211366645644",
    "address": "14A Da Vinci Place, Auckland",
    "nb_items": 5,
    "equipment": "Balance Logs<br>Slide<br>Spinner bowl<br>Supernova<br>Swing",
    "id": 22489,
    "url": "http://www.aucklandcity.govt.nz/whatson/places/parksonline/detail2.asp?pParkId=10636",
    "facilities": "playground",
    "about": "Local Park - Leisure"
  },
  {
    "name": "Dallas Reserve",
    "long": "174.716295231617",
    "lat": "-36.9112763730094",
    "address": "4 Dallas Place, Auckland",
    "nb_items": 4,
    "equipment": "Modern Modular<br>Seesaw<br>Swing Quad<br>Tube Slide",
    "id": 21673,
    "url": "http://www.aucklandcity.govt.nz/whatson/places/parksonline/detail2.asp?pParkId=440",
    "facilities": "Playground",
    "about": "Local green open space."
  },
  {
    "name": "Dalmatia Green",
    "long": "174.626575213289",
    "lat": "-36.8988807358479",
    "address": "7 Chislehurst Street, Auckland",
    "nb_items": 2,
    "equipment": "Modern Modular<br>Swing Double",
    "id": 22487,
    "url": "http://www.aucklandcity.govt.nz/whatson/places/parksonline/detail2.asp?pParkId=10644",
    "facilities": "playground",
    "about": "Local Park - Leisure"
  },
  {
    "name": "David Lange Park",
    "long": "174.800435848596",
    "lat": "-36.9680853798407",
    "address": "98R Bader Drive, Auckland",
    "nb_items": 10,
    "equipment": "Ab Board Adjacent To Playground<br>Cross Trainer Adjacent To Playground<br>Dip Bar Adjacent To Playground<br>Modern Modular (Small)<br>Modern Modular (Small)<br>Spinning Cup<br>Spring Saw<br>Swing<br>Swing<br>Bay swing unit<br>Rider<br>Shoulder Press",
    "id": 10751,
    "url": "http://www.aucklandcity.govt.nz/whatson/places/parksonline/detail2.asp?pParkId=10650",
    "facilities": "playground, toilets",
    "about": "Local Park - Sport"
  },
  {
    "name": "David Nathan Park",
    "long": "174.902787002168",
    "lat": "-37.0150807736754",
    "address": "68R Hill Road, Manukau",
    "nb_items": 1,
    "equipment": "Modern Modular (Large)",
    "id": 10629,
    "url": "http://www.aucklandcity.govt.nz/whatson/places/parksonline/detail2.asp?pParkId=10651",
    "facilities": "",
    "about": "Heritage/Historical Significance"
  },
  {
    "name": "Delphine Park",
    "long": "174.725101324522",
    "lat": "-36.8959348157921",
    "address": "6A Delphine Close, Auckland",
    "nb_items": 2,
    "equipment": "Cube<br>Swing",
    "id": 20877,
    "url": "",
    "facilities": "",
    "about": ""
  },
  {
    "name": "Derrimore Park",
    "long": "174.891853569012",
    "lat": "-36.988645384237",
    "address": "6R Derrimore Heights, Auckland",
    "nb_items": 3,
    "equipment": "Open Tile<br>Modern modular (large)<br>Swing unit",
    "id": 20233,
    "url": "http://www.aucklandcity.govt.nz/whatson/places/parksonline/detail2.asp?pParkId=10676",
    "facilities": "playground",
    "about": "Local Park - Leisure"
  },
  {
    "name": "Devonport Domain",
    "long": "174.806878772219",
    "lat": "-36.8278805614172",
    "address": "52 King Edward Parade, Auckland",
    "nb_items": 5,
    "equipment": "Fort & tunnel slide<br>Seesaw spinner<br>Seesaw<br>Seesaw-Spring<br>Swing",
    "id": 10998,
    "url": "http://www.aucklandcity.govt.nz/whatson/places/parksonline/detail2.asp?pParkId=10677",
    "facilities": "playground, toilets",
    "about": "Premier Park - Sport"
  },
  {
    "name": "Devonshire Reserve",
    "long": "174.724224499997",
    "lat": "-36.7554153672215",
    "address": "6 Devonshire Road, Auckland",
    "nb_items": 5,
    "equipment": "Overhead-Monkey Bars<br>Overhead-Multiple<br>Seesaw<br>Slide<br>Swing",
    "id": 22208,
    "url": "http://www.aucklandcity.govt.nz/whatson/places/parksonline/detail2.asp?pParkId=10678",
    "facilities": "playground",
    "about": "Local Park - Leisure"
  },
  {
    "name": "Dickey Reserve",
    "long": "174.714543783592",
    "lat": "-36.9056163087442",
    "address": "19 Dickey Street, Auckland",
    "nb_items": 7,
    "equipment": "Climbing Frame<br>Modern Modular<br>Single Seesaw<br>Spinner<br>Springy Animal<br>Springy Tractor<br>Swing Triple",
    "id": 21644,
    "url": "http://www.aucklandcity.govt.nz/whatson/places/parksonline/detail2.asp?pParkId=460",
    "facilities": "Playground",
    "about": "Local green open space."
  },
  {
    "name": "Don Buck Corner",
    "long": "174.608852210083",
    "lat": "-36.8585329311847",
    "address": "  Glen Road, Auckland",
    "nb_items": 4,
    "equipment": "Lullaby Swing<br>Modern Modular<br>Modern Modular<br>Spinner<br>Spinner<br>Swing Double",
    "id": 22495,
    "url": "http://www.aucklandcity.govt.nz/whatson/places/parksonline/detail2.asp?pParkId=10686",
    "facilities": "playground",
    "about": "Local Park - Leisure"
  },
  {
    "name": "Durbin Reserve",
    "long": "174.683103348506",
    "lat": "-36.7733702736169",
    "address": "27 Durbin Court, Auckland",
    "nb_items": 3,
    "equipment": "Monkey Bars<br>Slide<br>Swing",
    "id": 22211,
    "url": "",
    "facilities": "",
    "about": ""
  },
  {
    "name": "Durham Green",
    "long": "174.653409385654",
    "lat": "-36.8366842201304",
    "address": "12 Roby Street, Auckland",
    "nb_items": 2,
    "equipment": "Modern Modular<br>Swing Double",
    "id": 11368,
    "url": "http://www.aucklandcity.govt.nz/whatson/places/parksonline/detail2.asp?pParkId=10717",
    "facilities": "playground",
    "about": "Local Park - Leisure"
  },
  {
    "name": "East Tamaki Reserve",
    "long": "174.88735853284",
    "lat": "-36.9596282302436",
    "address": "244R East Tamaki Road, Auckland",
    "nb_items": 5,
    "equipment": "Modern Modular (Large)<br>Rolling Log<br>Slide<br>Swing<br>Track Glide",
    "id": 10691,
    "url": "http://www.aucklandcity.govt.nz/whatson/places/parksonline/detail2.asp?pParkId=10722",
    "facilities": "playground, toilets",
    "about": "Local Park - Sport"
  },
  {
    "name": "Eastdale Reserve",
    "long": "174.688549448395",
    "lat": "-36.8863711334285",
    "address": "33 Eastdale Road, Auckland",
    "nb_items": 7,
    "equipment": "Fitness Station Air Walker Dip & Crunch<br>Fitness Station Chin Up Step Up<br>Fitness Station-Situp Leg Press<br>Fitness Station-Twister<br>Modern Modular<br>Single Seesaw<br>Swing Double",
    "id": 10107,
    "url": "http://www.aucklandcity.govt.nz/whatson/places/parksonline/detail2.asp?pParkId=480",
    "facilities": "Barbecue, tables, playground, toilets.",
    "about": "Sports Park"
  },
  {
    "name": "Edenvale Park",
    "long": "174.755926286905",
    "lat": "-36.8706140147153",
    "address": "9 Edenvale Park Road, Auckland",
    "nb_items": 4,
    "equipment": "Module<br>Module - Green Slide<br>Stepping logs<br>Swing<br>Swing",
    "id": 21145,
    "url": "",
    "facilities": "",
    "about": ""
  },
  {
    "name": "Edith Hopper Park",
    "long": "174.753411440226",
    "lat": "-36.6345693788841",
    "address": "34B Ladies Mile, Auckland",
    "nb_items": 2,
    "equipment": "Module-Medium<br>Swing<br>Swing",
    "id": 11296,
    "url": "http://www.aucklandcity.govt.nz/whatson/places/parksonline/detail2.asp?pParkId=10734",
    "facilities": "playground",
    "about": ""
  },
  {
    "name": "Ellerslie Domain",
    "long": "174.81333687958",
    "lat": "-36.8985295732262",
    "address": "182 Main Highway, Auckland",
    "nb_items": 4,
    "equipment": "Climbing wall<br>Seesaw<br>Slide<br>Swing",
    "id": 10056,
    "url": "",
    "facilities": "",
    "about": ""
  },
  {
    "name": "Elliott Reserve",
    "long": "174.716905339708",
    "lat": "-36.7730056759975",
    "address": "34 Elliott Avenue, Auckland",
    "nb_items": 4,
    "equipment": "Module-Large<br>Seesaw<br>Swing<br>Tossup Hoop",
    "id": 11095,
    "url": "http://www.aucklandcity.govt.nz/whatson/places/parksonline/detail2.asp?pParkId=10742",
    "facilities": "playground",
    "about": "Local Park - Leisure"
  },
  {
    "name": "Elstree North Reserve",
    "long": "174.867776322535",
    "lat": "-36.874283497905",
    "address": "134 Leybourne Circle, Auckland",
    "nb_items": 3,
    "equipment": "Module<br>Supernova<br>Swing",
    "id": 10197,
    "url": "http://www.aucklandcity.govt.nz/whatson/places/parksonline/detail2.asp?pParkId=505",
    "facilities": "Playground",
    "about": "Local green open space."
  },
  {
    "name": "Emerald Valley Park",
    "long": "174.606271434603",
    "lat": "-36.8389785342438",
    "address": "  Killygordon Place, Auckland",
    "nb_items": 4,
    "equipment": "Double Swing<br>Luna Spinner<br>Modern Modular<br>Modern Modular<br>Seesaw",
    "id": 21220,
    "url": "http://www.aucklandcity.govt.nz/whatson/places/parksonline/detail2.asp?pParkId=10748",
    "facilities": "playground",
    "about": "Emerald Valley Park is a quiet neighbourhood park with plenty of space to spread out."
  },
  {
    "name": "Epping Esplanade",
    "long": "174.635496110049",
    "lat": "-36.8685669231745",
    "address": "  Epping Road, Auckland",
    "nb_items": 2,
    "equipment": "Modern Modular<br>Swing Double",
    "id": 21226,
    "url": "http://www.aucklandcity.govt.nz/whatson/places/parksonline/detail2.asp?pParkId=10752",
    "facilities": "playground",
    "about": "Premier Park - Leisure"
  },
  {
    "name": "Eric Armishaw Park",
    "long": "174.697650798448",
    "lat": "-36.8692169825745",
    "address": "117 Walker Road, Auckland",
    "nb_items": 3,
    "equipment": "Module<br>Springy seesaw<br>Swings",
    "id": 10321,
    "url": "http://www.aucklandcity.govt.nz/whatson/places/parksonline/detail2.asp?pParkId=520",
    "facilities": "Playground, toilets.",
    "about": "Coastal/beach - windsurfing."
  },
  {
    "name": "Essex Road Reserve",
    "long": "174.761347547282",
    "lat": "-36.8821150128759",
    "address": "3 Ngauruhoe Street, Auckland",
    "nb_items": 3,
    "equipment": "Module<br>Seesaw<br>Swings",
    "id": 21153,
    "url": "",
    "facilities": "",
    "about": ""
  },
  {
    "name": "Everard Reserve",
    "long": "174.803834229438",
    "lat": "-36.6048074343995",
    "address": "16A Shakespear Road, Auckland",
    "nb_items": 2,
    "equipment": "Module-Medium<br>Seesaw-Spring",
    "id": 21045,
    "url": "http://www.aucklandcity.govt.nz/whatson/places/parksonline/detail2.asp?pParkId=10765",
    "facilities": "playground",
    "about": ""
  },
  {
    "name": "Excelsior Way Reserve",
    "long": "174.776687817215",
    "lat": "-36.3278393162164",
    "address": "4 May Way, Omaha",
    "nb_items": 1,
    "equipment": "Module-Medium",
    "id": 22264,
    "url": "",
    "facilities": "",
    "about": ""
  },
  {
    "name": "Exeter Reserve",
    "long": "174.722212604203",
    "lat": "-36.7563092756227",
    "address": "3 Exeter Place, Auckland",
    "nb_items": 2,
    "equipment": "Slide<br>Swing",
    "id": 22223,
    "url": "http://www.aucklandcity.govt.nz/whatson/places/parksonline/detail2.asp?pParkId=10772",
    "facilities": "playground",
    "about": "Natural"
  },
  {
    "name": "Fairburn Reserve",
    "long": "174.840460325771",
    "lat": "-36.9447361438577",
    "address": "28-34 Mason Avenue, Auckland Central",
    "nb_items": 11,
    "equipment": "Climbing frame<br>Hammock<br>Slide<br>Spinner<br>Spinner cup<br>Stepping pods<br>Swing set<br>Trampolines<br>Tube shape climbers<br>Twirler Spinner<br>Water play",
    "id": 10167,
    "url": "http://www.aucklandcity.govt.nz/whatson/places/parksonline/detail2.asp?pParkId=540",
    "facilities": "Playground",
    "about": "Local green open space."
  },
  {
    "name": "Fairdene Reserve",
    "long": "174.625844369525",
    "lat": "-36.8647372820327",
    "address": "25 Fairdene Avenue, Auckland",
    "nb_items": 4,
    "equipment": "Modern Modular<br>Spica<br>Springy Animal<br>Swing Triple",
    "id": 11367,
    "url": "http://www.aucklandcity.govt.nz/whatson/places/parksonline/detail2.asp?pParkId=12004",
    "facilities": "playground",
    "about": "Local Park - Leisure"
  },
  {
    "name": "Fairlands Reserve",
    "long": "174.695831737926",
    "lat": "-36.8831119924266",
    "address": "43 Seaside Avenue, Auckland",
    "nb_items": 2,
    "equipment": "Slide<br>Swing",
    "id": 21379,
    "url": "http://www.aucklandcity.govt.nz/whatson/places/parksonline/detail2.asp?pParkId=545",
    "facilities": "Playground",
    "about": "Local green open space."
  },
  {
    "name": "Fearon Park",
    "long": "174.745903110496",
    "lat": "-36.9031952101671",
    "address": "21A Fearon Avenue, Auckland",
    "nb_items": 6,
    "equipment": "Fantail roundabout<br>Module<br>Seesaw<br>Slide<br>Swing<br>Tower",
    "id": 10198,
    "url": "http://www.aucklandcity.govt.nz/whatson/places/parksonline/detail2.asp?pParkId=555",
    "facilities": "The reserve is flat and accommodates two floodlit rugby fields in winter and three softball diamonds in summer. A concrete block building incorporating changing rooms and toilets stands midway along the western boundary of the reserve.",
    "about": "Fearon Park lies between Keystone Avenue and Fearon Avenue. The south western corner of the reserve adjoins Harold Long Reserve. Further west the reserve adjoins the Mt Roskill Rugby Football Club clubrooms. Adjoining the southern boundary of the reserve is a car park for 120 cars, predominantly on land owned by the Rugby Club and partially on street reserve."
  },
  {
    "name": "Featherstone Park",
    "long": "174.621048770882",
    "lat": "-36.8710955630196",
    "address": "59 Swanson Road, Auckland",
    "nb_items": 2,
    "equipment": "Modern Modular<br>Swing Double",
    "id": 21245,
    "url": "http://www.aucklandcity.govt.nz/whatson/places/parksonline/detail2.asp?pParkId=12019",
    "facilities": "playground",
    "about": "Local Park - Leisure"
  },
  {
    "name": "Fergusson Domain",
    "long": "174.799238217225",
    "lat": "-36.911015671427",
    "address": "5 Olea Road, Auckland",
    "nb_items": 4,
    "equipment": "Module<br>spica<br>Spica<br>Swing",
    "id": 10269,
    "url": "http://www.aucklandcity.govt.nz/whatson/places/parksonline/detail2.asp?pParkId=565",
    "facilities": "Natural rock outcrops occur in places in the western and southern parts of the reserve, with a large rocky outcrop adjacent to Melville Place being a particularly significant landscape feature. Playing fields, tennis and volleyball courts, scouts clubrooms, and caretakers maintenance depot, athletic and harriers clubrooms, parking area and childrens playground, have been developed on the level land.",
    "about": "Fergusson Domain is a large, multi-purpose reserve of more than six hectares, and lies in a predominantly residential area, bounded by Oranga Avenue, Waitangi Road, Roosevelt Avenue and Namata Road. It is an irregularly shaped site with a large level area on the eastern side and a series of higher terraces rising towards the western side."
  },
  {
    "name": "Fergusson Oaks Reserve",
    "long": "174.89475694828",
    "lat": "-36.975893119855",
    "address": "102R Dawson Road, Auckland",
    "nb_items": 2,
    "equipment": "Modern modular (large)<br>Swing unit",
    "id": 10623,
    "url": "http://www.aucklandcity.govt.nz/whatson/places/parksonline/detail2.asp?pParkId=12026",
    "facilities": "playground",
    "about": "Local Park - Leisure"
  },
  {
    "name": "Ferngrove Park",
    "long": "174.604945148108",
    "lat": "-36.8701964521366",
    "address": "1 Ferngrove Avenue, Auckland",
    "nb_items": 2,
    "equipment": "Modern Modular<br>Swing Double",
    "id": 21704,
    "url": "http://www.aucklandcity.govt.nz/whatson/places/parksonline/detail2.asp?pParkId=12032",
    "facilities": "playground",
    "about": "Local Park - Leisure"
  },
  {
    "name": "Fernhill Reserve",
    "long": "174.717143007358",
    "lat": "-36.7181765854766",
    "address": "4 Candlestick Place, Auckland",
    "nb_items": 4,
    "equipment": "Module-Small<br>Module-Small-Navigator<br>Springy<br>Springy<br>Swing snr",
    "id": 22229,
    "url": "",
    "facilities": "",
    "about": ""
  },
  {
    "name": "Fernwood Grove",
    "long": "174.717329997101",
    "lat": "-36.7704098619656",
    "address": "2 Fernwood Grove, Auckland",
    "nb_items": 2,
    "equipment": "Module-Medium<br>Swing Jnr",
    "id": 22275,
    "url": "http://www.aucklandcity.govt.nz/whatson/places/parksonline/detail2.asp?pParkId=12035",
    "facilities": "playground",
    "about": "Local Park - Leisure"
  },
  {
    "name": "Ferry Rd/ Hawaiian Pde Junction",
    "long": "174.740940508791",
    "lat": "-36.6439264564096",
    "address": "  Ferry Road, Auckland",
    "nb_items": 6,
    "equipment": "Climber<br>Seesaw<br>Spinner pole<br>Spinner<br>Swing keyhole Jnr<br>Swing Snr",
    "id": 22604,
    "url": "",
    "facilities": "",
    "about": ""
  },
  {
    "name": "Fields Reserve",
    "long": "174.723218055661",
    "lat": "-36.7136361895899",
    "address": "3 Fields Parade, Auckland",
    "nb_items": 2,
    "equipment": "Module-Medium<br>Swing",
    "id": 22235,
    "url": "http://www.aucklandcity.govt.nz/whatson/places/parksonline/detail2.asp?pParkId=12041",
    "facilities": "playground",
    "about": "Local Park - Leisure"
  },
  {
    "name": "Flat Rock Reserve",
    "long": "174.854213600712",
    "lat": "-36.9287368705528",
    "address": "416A Panama Road, Auckland",
    "nb_items": 4,
    "equipment": "Artificial turf mound<br>Lunar Spinner<br>Module<br>Swings",
    "id": 21523,
    "url": "",
    "facilities": "",
    "about": ""
  },
  {
    "name": "Flaunty Reserve",
    "long": "174.622521862597",
    "lat": "-36.8206106554846",
    "address": "24 Flaunty Place, Auckland",
    "nb_items": 1,
    "equipment": "Double Slide",
    "id": 21295,
    "url": "http://www.aucklandcity.govt.nz/whatson/places/parksonline/detail2.asp?pParkId=12054",
    "facilities": "playground",
    "about": "Local Park - Leisure"
  },
  {
    "name": "Fong Reserve",
    "long": "174.798666923115",
    "lat": "-36.9159924865412",
    "address": "  Captain Springs Road, Auckland",
    "nb_items": 2,
    "equipment": "Module<br>Swing",
    "id": 23103,
    "url": "http://www.aucklandcity.govt.nz/whatson/places/parksonline/detail2.asp?pParkId=600",
    "facilities": "Playground",
    "about": "Very small local green."
  },
  {
    "name": "Fonteyn Reserve",
    "long": "174.68109558869",
    "lat": "-36.8879066140291",
    "address": "81 Fonteyn Street, Auckland",
    "nb_items": 3,
    "equipment": "Modern Modular<br>Seesaw<br>Swing Double",
    "id": 21660,
    "url": "http://www.aucklandcity.govt.nz/whatson/places/parksonline/detail2.asp?pParkId=605",
    "facilities": "Playground, tables",
    "about": "Local green open space."
  },
  {
    "name": "Foothills Lane Reserve",
    "long": "174.634525545384",
    "lat": "-36.9245002419661",
    "address": "7 Foothills Lane, Auckland",
    "nb_items": 2,
    "equipment": "Modern Modular<br>Swing Double",
    "id": 22010,
    "url": "http://www.aucklandcity.govt.nz/whatson/places/parksonline/detail2.asp?pParkId=12059",
    "facilities": "playground",
    "about": "Local Park - Leisure"
  },
  {
    "name": "Fowlds Park",
    "long": "174.727564574194",
    "lat": "-36.8733957415697",
    "address": "50 Western Springs Road, Auckland",
    "nb_items": 4,
    "equipment": "Fitness Station<br>Fitness Station<br>Fitness Station<br>Fitness Station<br>Fitness Station<br>Fitness Station<br>Fitness Station<br>Fitness Station<br>Fitness Station<br>Fitness Station<br>Module<br>Seesaw<br>Swings",
    "id": 10394,
    "url": "http://www.aucklandcity.govt.nz/whatson/places/parksonline/detail2.asp?pParkId=610",
    "facilities": "The park drops from its highest point on Western Springs Road down a bank covered by mature gum trees to the main park driveway. The land drops again on the southern side of the driveway down a planted and landscaped bank to playing fields and clubrooms with car parking.",
    "about": "Fowlds Park is bounded to the north by Western Springs Road, to the west by Malvern Road, and to the south and east by residential properties in Brewster Avenue, Malvern Road, Rocky Nook Avenue, Parkhill Road and Wolseley Street."
  },
  {
    "name": "Francis Reserve",
    "long": "174.728994869209",
    "lat": "-36.859441512511",
    "address": "4 Warnock Street, Auckland Central",
    "nb_items": 3,
    "equipment": "Dolphin rocker<br>Module Junior<br>Swings",
    "id": 10000,
    "url": "http://www.aucklandcity.govt.nz/whatson/places/parksonline/detail2.asp?pParkId=615",
    "facilities": "Playground, pergola",
    "about": "Local green open space."
  },
  {
    "name": "Freemans Bay Community Centre",
    "long": "174.751146749151",
    "lat": "-36.8528440578697",
    "address": "52 Hepburn Street, Auckland",
    "nb_items": 1,
    "equipment": "Small module",
    "id": 10274,
    "url": "",
    "facilities": "",
    "about": ""
  },
  {
    "name": "Gallony Park",
    "long": "174.604657799362",
    "lat": "-36.8404096911872",
    "address": "18 Gallony Avenue, Auckland",
    "nb_items": 2,
    "equipment": "Modern Modular<br>Swing Double",
    "id": 21281,
    "url": "http://www.aucklandcity.govt.nz/whatson/places/parksonline/detail2.asp?pParkId=12095",
    "facilities": "playground",
    "about": "Local Park - Leisure"
  },
  {
    "name": "George Deane Place Reserve",
    "long": "174.690353030023",
    "lat": "-36.7635909344716",
    "address": "36 George Deane Place, Auckland",
    "nb_items": 2,
    "equipment": "Slide<br>Swing",
    "id": 22324,
    "url": "http://www.aucklandcity.govt.nz/whatson/places/parksonline/detail2.asp?pParkId=12108",
    "facilities": "playground",
    "about": "Local Park - Leisure"
  },
  {
    "name": "Gilshennan Reserve",
    "long": "174.703580238824",
    "lat": "-36.6070830998574",
    "address": "35 Gilshennan Valley, Auckland",
    "nb_items": 3,
    "equipment": "Module-Medium-Jnr<br>Seesaw-Spring<br>Swing mega",
    "id": 20569,
    "url": "http://www.aucklandcity.govt.nz/whatson/places/parksonline/detail2.asp?pParkId=12117",
    "facilities": "playground",
    "about": ""
  },
  {
    "name": "Gladstone Park",
    "long": "174.785270442228",
    "lat": "-36.8495093238652",
    "address": "108 Gladstone Road, Auckland",
    "nb_items": 9,
    "equipment": "Horn<br>Large module<br>Overhead climber<br>Slide tower<br>Small module<br>Springy car<br>Springy seesaw<br>Springy seesaw<br>Swing<br>Swing<br>Track glide",
    "id": 10037,
    "url": "",
    "facilities": "",
    "about": ""
  },
  {
    "name": "Glen Bay Close Reserve",
    "long": "174.726486487796",
    "lat": "-36.7322619567166",
    "address": "114 Hugh Green Drive, Auckland",
    "nb_items": 2,
    "equipment": "Spacenet<br>Swing keyhole Jnr",
    "id": 22286,
    "url": "",
    "facilities": "",
    "about": ""
  },
  {
    "name": "Glen Norman Reserve",
    "long": "174.622344413439",
    "lat": "-36.8644535797833",
    "address": "93 Rathgar Road, Auckland",
    "nb_items": 2,
    "equipment": "Modern Modular<br>Swing Double",
    "id": 11381,
    "url": "http://www.aucklandcity.govt.nz/whatson/places/parksonline/detail2.asp?pParkId=12124",
    "facilities": "playground",
    "about": "Local Park - Leisure"
  },
  {
    "name": "Glenbrook Beach Beachfront",
    "long": "174.711849108546",
    "lat": "-37.1623594587168",
    "address": "  Beach Road, Auckland",
    "nb_items": 1,
    "equipment": "Modern modular",
    "id": 20660,
    "url": "",
    "facilities": "",
    "about": ""
  },
  {
    "name": "Glendene Reserve",
    "long": "174.650436078232",
    "lat": "-36.8894484069713",
    "address": "34 Glendene Avenue, Auckland",
    "nb_items": 5,
    "equipment": "Bell Tower<br>Hip Hop<br>Modern Modular Juni<br>Regulus Climbing<br>Swing Double",
    "id": 21116,
    "url": "http://www.aucklandcity.govt.nz/whatson/places/parksonline/detail2.asp?pParkId=12130",
    "facilities": "playground",
    "about": "Natural"
  },
  {
    "name": "Glover Park",
    "long": "174.866245442001",
    "lat": "-36.8476407226387",
    "address": "32 Glover Road, Auckland",
    "nb_items": 2,
    "equipment": "Large module<br>Swing T bar",
    "id": 10218,
    "url": "",
    "facilities": "",
    "about": ""
  },
  {
    "name": "Gooseberry Flat",
    "long": "175.490477089153",
    "lat": "-36.3058829526055",
    "address": "418 Shoal Bay Road, Auckland",
    "nb_items": 2,
    "equipment": "Module - senior<br>Swing",
    "id": 20795,
    "url": "http://www.aucklandcity.govt.nz/whatson/places/parksonline/detail2.asp?pParkId=695",
    "facilities": "Playground",
    "about": "Lovely coastal reserve in Tryphena Bay."
  },
  {
    "name": "Green Bay Domain",
    "long": "174.683516050945",
    "lat": "-36.9316336862643",
    "address": "23 Cliff View Drive, Auckland",
    "nb_items": 2,
    "equipment": "Modern Modular<br>Swing Double",
    "id": 21136,
    "url": "http://www.aucklandcity.govt.nz/whatson/places/parksonline/detail2.asp?pParkId=12180",
    "facilities": "playground, toilets",
    "about": "Local Park - Sport"
  },
  {
    "name": "Greenhithe War Memorial Park",
    "long": "174.670483747539",
    "lat": "-36.7719974827749",
    "address": "10 Roland Road, Auckland",
    "nb_items": 2,
    "equipment": "Module-Small-Preschool<br>Swing",
    "id": 10935,
    "url": "http://www.aucklandcity.govt.nz/whatson/places/parksonline/detail2.asp?pParkId=12189",
    "facilities": "playground, toilets",
    "about": "Local Park - Sport"
  },
  {
    "name": "Greenslade Reserve",
    "long": "174.743766410064",
    "lat": "-36.8002173772694",
    "address": "1 Greenslade Crescent, North Shore",
    "nb_items": 1,
    "equipment": "GymGuru<br>GymGuru<br>GymGuru<br>GymGuru<br>GymGuru",
    "id": 20078,
    "url": "",
    "facilities": "",
    "about": ""
  },
  {
    "name": "Greville Reserve",
    "long": "174.751534745055",
    "lat": "-36.7576912187247",
    "address": "253 Forest Hill Road, Auckland",
    "nb_items": 1,
    "equipment": "Spinner",
    "id": 20054,
    "url": "",
    "facilities": "",
    "about": ""
  },
  {
    "name": "Grey Lynn Park",
    "long": "174.737427414074",
    "lat": "-36.8583876838283",
    "address": "69-71 Williamson Avenue, Auckland Central",
    "nb_items": 9,
    "equipment": "Double skate unit<br>Fantail roundabout<br>Fitness Station<br>Fitness Station<br>Fitness Station<br>Flying Fox<br>Large module<br>Seesaw<br>Spica twirl about<br>Swing<br>Vaga spinner",
    "id": 10155,
    "url": "http://www.aucklandcity.govt.nz/whatson/places/parksonline/detail2.asp?pParkId=720",
    "facilities": "The park consists mainly of playing fields of mown grass, with trees around the edges and some wilderness areas in the eastern side valleys. It also has a scupltural display of nine works by local artists. There is an interesting and varied sculpture collection on the eastern side of the park close to the Rose Road entrance.",
    "about": "Grey Lynn Park covers approximately 10.5ha and is centrally situated in the residential area of Grey Lynn, west of Auckland city. The park has mostly been developed as an active recreational area. It is regularly used as the venue for the Grey Lynn Festival."
  },
  {
    "name": "Gribblehirst Park",
    "long": "174.738780246424",
    "lat": "-36.8796892010981",
    "address": "225 Sandringham Road, Auckland",
    "nb_items": 5,
    "equipment": "Climbing module<br>Flying Fox<br>Play Boards<br>Play Boards<br>Sky Surfer<br>Slide",
    "id": 10389,
    "url": "http://www.aucklandcity.govt.nz/whatson/places/parksonline/detail2.asp?pParkId=725",
    "facilities": "Tables, playground, toilets.",
    "about": "Sports park set in attractive surroundings including mature trees and rose gardens. Home to rugby, bowling green/club. Petanque terrain and a variety of other open spaces."
  },
  {
    "name": "Griffin Reserve",
    "long": "174.776670284168",
    "lat": "-36.8867549439787",
    "address": "13 Griffin Avenue, Auckland",
    "nb_items": 4,
    "equipment": "Climbing net<br>Module<br>Play house<br>Swing",
    "id": 10416,
    "url": "http://www.aucklandcity.govt.nz/whatson/places/parksonline/detail2.asp?pParkId=730",
    "facilities": "Playground, table",
    "about": "Griffin Reserve is an area of green open space with peripheral landscaping featuring specimen trees. It is used by the local community for informal recreation. It also fulfils the open space requirements of the Scout and Ranger Halls located on the reserve."
  },
  {
    "name": "Growers Stadium & Stadium No. 2",
    "long": "174.907322401964",
    "lat": "-37.1966553085178",
    "address": "  Franklin Road, Auckland",
    "nb_items": 4,
    "equipment": "Chin up bar<br>Tricep dip bars<br>Climbing Frame<br>Climbing Frame<br>Toss Up",
    "id": 20776,
    "url": "",
    "facilities": "",
    "about": ""
  },
  {
    "name": "Gulf Harbour Recreation Reserve",
    "long": "174.790440091143",
    "lat": "-36.6134087207158",
    "address": "R 40 Gulf Harbour Drive, Auckland",
    "nb_items": 2,
    "equipment": "Module-Medium<br>Swing",
    "id": 20468,
    "url": "",
    "facilities": "",
    "about": ""
  },
  {
    "name": "Gus Nola Park",
    "long": "174.610697901464",
    "lat": "-36.8805940756563",
    "address": "  Summerland Drive, Auckland",
    "nb_items": 5,
    "equipment": "Fort/Slide<br>Modern Modular<br>Playground Track<br>Springy Animal<br>Swing Double",
    "id": 21792,
    "url": "http://www.aucklandcity.govt.nz/whatson/places/parksonline/detail2.asp?pParkId=12208",
    "facilities": "playground",
    "about": "Local Park - Leisure"
  },
  {
    "name": "Hamilton Estate Recreation Reserve",
    "long": "174.739806563164",
    "lat": "-37.2438497765016",
    "address": "10 Huia Street, Auckland",
    "nb_items": 5,
    "equipment": "Allsafe tiles<br>Arch Climber<br>Basket swing<br>Macrocarpa stepping logs<br>Modular senior",
    "id": 10520,
    "url": "http://www.aucklandcity.govt.nz/whatson/places/parksonline/detail2.asp?pParkId=12222",
    "facilities": "playground",
    "about": "Local Park - Leisure"
  },
  {
    "name": "Hanford Place Foreshore",
    "long": "174.859735572318",
    "lat": "-37.0203356558361",
    "address": "24R Hanford Place, Auckland",
    "nb_items": 4,
    "equipment": "Modern Modular (Large)<br>Swing<br>Mini dome spinner<br>Sprial net climber",
    "id": 20833,
    "url": "http://www.aucklandcity.govt.nz/whatson/places/parksonline/detail2.asp?pParkId=12226",
    "facilities": "playground",
    "about": "Esplanade"
  },
  {
    "name": "Harania/Marys Foreshore Reserve",
    "long": "174.809349178977",
    "lat": "-36.9524097110417",
    "address": "38R Harania Avenue, Auckland",
    "nb_items": 5,
    "equipment": "Bounce buggy<br>Climbing frame<br>Swing unit<br>Twirler spinner<br>Wave slide",
    "id": 20760,
    "url": "",
    "facilities": "",
    "about": ""
  },
  {
    "name": "Harbutt Reserve",
    "long": "174.705718727159",
    "lat": "-36.8879199713547",
    "address": "39 Harbutt Avenue, Auckland",
    "nb_items": 3,
    "equipment": "Fantail roundabout<br>Module<br>Swing T bar",
    "id": 21077,
    "url": "http://www.aucklandcity.govt.nz/whatson/places/parksonline/detail2.asp?pParkId=12236",
    "facilities": "playground",
    "about": ""
  },
  {
    "name": "Harbutt Reserve",
    "long": "174.705718727159",
    "lat": "-36.8879199713547",
    "address": "39 Harbutt Avenue, Auckland",
    "nb_items": 3,
    "equipment": "Fantail roundabout<br>Module<br>Swing T bar",
    "id": 21077,
    "url": "http://www.aucklandcity.govt.nz/whatson/places/parksonline/detail2.asp?pParkId=780",
    "facilities": "Playground",
    "about": "Local green open space."
  },
  {
    "name": "Hardley Reserve",
    "long": "174.770582881603",
    "lat": "-36.6209543538184",
    "address": "6 Hardley Avenue, Tindalls Beach",
    "nb_items": 3,
    "equipment": "Module-Medium<br>Seesaw-Spring<br>Swing mega",
    "id": 22401,
    "url": "http://www.aucklandcity.govt.nz/whatson/places/parksonline/detail2.asp?pParkId=12237",
    "facilities": "playground, toilets",
    "about": ""
  },
  {
    "name": "Harold Moody Reserve",
    "long": "174.648697435481",
    "lat": "-36.9122141556445",
    "address": "40 Glendale Road, Auckland",
    "nb_items": 2,
    "equipment": "Modern Modular<br>Swing Double",
    "id": 11469,
    "url": "http://www.aucklandcity.govt.nz/whatson/places/parksonline/detail2.asp?pParkId=12239",
    "facilities": "playground, toilets",
    "about": "Intersected by the Waikumete stream, the two parks are popular with joggers and softball players but the many other options include flying a kite, walking the dog or bringing the kids for an afternoon on the playground."
  },
  {
    "name": "Harry James Reserve",
    "long": "174.552775515333",
    "lat": "-36.8200430608053",
    "address": "  Taupaki Road, Auckland",
    "nb_items": 4,
    "equipment": "Module-Medium<br>Spinner<br>Springy car<br>Swing",
    "id": 11298,
    "url": "http://www.aucklandcity.govt.nz/whatson/places/parksonline/detail2.asp?pParkId=12243",
    "facilities": "playground, toilets",
    "about": ""
  },
  {
    "name": "Hart Domain",
    "long": "174.634349846553",
    "lat": "-36.8845424445284",
    "address": "  Vitasovich Avenue, Auckland",
    "nb_items": 2,
    "equipment": "Modern Modular<br>Modern Modular<br>Swing Quad",
    "id": 21167,
    "url": "http://www.aucklandcity.govt.nz/whatson/places/parksonline/detail2.asp?pParkId=12244",
    "facilities": "playground",
    "about": "Local Park - Leisure"
  },
  {
    "name": "Harwood Reserve",
    "long": "174.73812248124",
    "lat": "-36.8948839918404",
    "address": "21A Kiwitea Street, Auckland",
    "nb_items": 4,
    "equipment": "Slide<br>Springy animal<br>Springy animal<br>Springy sesaw<br>Swing",
    "id": 21157,
    "url": "http://www.aucklandcity.govt.nz/whatson/places/parksonline/detail2.asp?pParkId=790",
    "facilities": "Playground",
    "about": "Local green open space."
  },
  {
    "name": "Heard Park",
    "long": "174.780191876418",
    "lat": "-36.8543553510603",
    "address": "186 Parnell Road, Auckland",
    "nb_items": 1,
    "equipment": "Swing",
    "id": 10012,
    "url": "",
    "facilities": "",
    "about": ""
  },
  {
    "name": "Heath Reserve",
    "long": "174.756239109845",
    "lat": "-36.8070904794967",
    "address": "140 Exmouth Road, Auckland",
    "nb_items": 3,
    "equipment": "Module-Small<br>Seesaw<br>Swing",
    "id": 22107,
    "url": "http://www.aucklandcity.govt.nz/whatson/places/parksonline/detail2.asp?pParkId=12263",
    "facilities": "playground",
    "about": "Local Park - Leisure"
  },
  {
    "name": "Helensville Civic Centre Grounds",
    "long": "174.451556034193",
    "lat": "-36.6764285775207",
    "address": "49 Commercial Road, Auckland",
    "nb_items": 3,
    "equipment": "Module-Medium<br>Swing snr<br>Swing T bar Jnr",
    "id": 22398,
    "url": "",
    "facilities": "",
    "about": ""
  },
  {
    "name": "Henderson Park - Henderson",
    "long": "174.626972219852",
    "lat": "-36.8793125412579",
    "address": "41 Wilsher Crescent, Auckland",
    "nb_items": 1,
    "equipment": "Fitness Station<br>Fitness Station<br>Fitness Station",
    "id": 11393,
    "url": "",
    "facilities": "",
    "about": ""
  },
  {
    "name": "Henderson Valley Park",
    "long": "174.616613596472",
    "lat": "-36.8952743417402",
    "address": "  Henderson Valley Road, Auckland",
    "nb_items": 6,
    "equipment": "Modern Modular<br>Single Seesaw<br>Spiral Net Climber<br>Springy Animal<br>Supernova<br>Swing Double",
    "id": 11391,
    "url": "http://www.aucklandcity.govt.nz/whatson/places/parksonline/detail2.asp?pParkId=12278",
    "facilities": "playground, toilets",
    "about": "Premier Park - Leisure"
  },
  {
    "name": "Hendrika Court",
    "long": "174.638505722579",
    "lat": "-36.8066020768863",
    "address": "22 Hendrika Court, Auckland",
    "nb_items": 2,
    "equipment": "Module-Large<br>Swing",
    "id": 21979,
    "url": "http://www.aucklandcity.govt.nz/whatson/places/parksonline/detail2.asp?pParkId=12280",
    "facilities": "playground",
    "about": "Local Park - Leisure"
  },
  {
    "name": "Henry Reserve",
    "long": "174.697964856533",
    "lat": "-36.8914532298898",
    "address": "11 Henry Street, Auckland",
    "nb_items": 4,
    "equipment": "Basket Swing<br>Modern Modular Med<br>Spinner<br>Swing Double",
    "id": 21692,
    "url": "http://www.aucklandcity.govt.nz/whatson/places/parksonline/detail2.asp?pParkId=805",
    "facilities": "Playground",
    "about": "Local green open space."
  },
  {
    "name": "Herald Island Domain",
    "long": "174.656256349723",
    "lat": "-36.7796265556094",
    "address": "44 Ferry Parade, Auckland",
    "nb_items": 4,
    "equipment": "Module medium (senior)<br>Module-Small-Jnr<br>Sandpit<br>Swing",
    "id": 11392,
    "url": "http://www.aucklandcity.govt.nz/whatson/places/parksonline/detail2.asp?pParkId=12284",
    "facilities": "playground, toilets",
    "about": "Local Park - Leisure"
  },
  {
    "name": "Heron Park",
    "long": "174.69892322655",
    "lat": "-36.8860173801969",
    "address": "1625-162 Great North Road, Auckland Central",
    "nb_items": 6,
    "equipment": "Climbing net<br>Cup spinner<br>Flying Fox<br>Junior Swing<br>Slide<br>Slide<br>Supernova",
    "id": 10048,
    "url": "",
    "facilities": "",
    "about": ""
  },
  {
    "name": "Highgrove Reserve",
    "long": "174.729347281485",
    "lat": "-36.7560168209184",
    "address": "15 Highgrove Lane, Auckland",
    "nb_items": 1,
    "equipment": "Module-Medium",
    "id": 20838,
    "url": "http://www.aucklandcity.govt.nz/whatson/places/parksonline/detail2.asp?pParkId=12298",
    "facilities": "playground",
    "about": "Local Park - Leisure"
  },
  {
    "name": "Hinau Reserve",
    "long": "174.680778003282",
    "lat": "-36.920404318367",
    "address": "  Hinau Street, Auckland",
    "nb_items": 1,
    "equipment": "Swing Double",
    "id": 21097,
    "url": "http://www.aucklandcity.govt.nz/whatson/places/parksonline/detail2.asp?pParkId=12313",
    "facilities": "playground",
    "about": "Local Park - Leisure"
  },
  {
    "name": "Hindmarsh Green",
    "long": "174.623663094631",
    "lat": "-36.8952605063916",
    "address": "25 Hindmarsh Street, Auckland",
    "nb_items": 6,
    "equipment": "Fort/Slide<br>Modern Modular<br>Playground Track<br>Spinner<br>Stepping Pod<br>Swing Double",
    "id": 20892,
    "url": "http://www.aucklandcity.govt.nz/whatson/places/parksonline/detail2.asp?pParkId=12314",
    "facilities": "playground",
    "about": "Local Park - Leisure"
  },
  {
    "name": "Hinemoa Park",
    "long": "174.7346646793",
    "lat": "-36.8220610810941",
    "address": "1 Hinemoa Street, Auckland",
    "nb_items": 6,
    "equipment": "Climber<br>Seesaw-Hip Hop Seasaw<br>Slide<br>Spinner<br>Swing<br>Swing keyhole Jnr",
    "id": 11104,
    "url": "http://www.aucklandcity.govt.nz/whatson/places/parksonline/detail2.asp?pParkId=12315",
    "facilities": "BBQ,playground, toilets",
    "about": "Local Park - Coastal"
  },
  {
    "name": "Hobson Reserve",
    "long": "174.859154904159",
    "lat": "-36.8927364060909",
    "address": "43 Court Crescent, Auckland",
    "nb_items": 4,
    "equipment": "Small module<br>Spica<br>Springy animal<br>Swing T bar",
    "id": 21322,
    "url": "",
    "facilities": "",
    "about": ""
  },
  {
    "name": "Hobsonville Point Park",
    "long": "174.660205886626",
    "lat": "-36.7916493853413",
    "address": "  Buckley Avenue, Auckland",
    "nb_items": 14,
    "equipment": "Balance beam<br>Bridge<br>Climber<br>Module-Small-Jnr<br>Sculpture<br>Sculpture-5 seeds<br>Sculpture-Climbing Pods<br>Sculpture-Kowhai seed<br>Sculpture<br>Sculpture<br>Sculpture-Nikau seed<br>Sculpture-Pigeonwood seed<br>Slide<br>Spinner bowl<br>Spinner bowl<br>Stepping logs<br>Swing",
    "id": 21368,
    "url": "",
    "facilities": "",
    "about": ""
  },
  {
    "name": "Hobsonville War Memorial",
    "long": "174.649295184269",
    "lat": "-36.7971476246214",
    "address": "  Hobsonville Road, Auckland",
    "nb_items": 3,
    "equipment": "Module-Large<br>Swing<br>Swing snr",
    "id": 11390,
    "url": "http://www.aucklandcity.govt.nz/whatson/places/parksonline/detail2.asp?pParkId=12323",
    "facilities": "playground, toilets",
    "about": "Local Park - Sport"
  },
  {
    "name": "Home Reserve",
    "long": "174.746565502513",
    "lat": "-36.8663229826875",
    "address": "19 King Street, Auckland",
    "nb_items": 2,
    "equipment": "Module Small<br>Springy Animal",
    "id": 21408,
    "url": "http://www.aucklandcity.govt.nz/whatson/places/parksonline/detail2.asp?pParkId=875",
    "facilities": "Playground",
    "about": "Small Local green open space."
  },
  {
    "name": "Hooton Reserve",
    "long": "174.705598772167",
    "lat": "-36.7211514170225",
    "address": "259 Oteha Valley Road, Albany",
    "nb_items": 5,
    "equipment": "Arm press<br>Leg Press<br>Climber - Spinner<br>Module-Medium<br>Swing",
    "id": 20076,
    "url": "http://www.aucklandcity.govt.nz/whatson/places/parksonline/detail2.asp?pParkId=12333",
    "facilities": "playground, toilets",
    "about": "Local Park - Leisure"
  },
  {
    "name": "Horsham Reserve",
    "long": "174.82496264794",
    "lat": "-36.8955202436716",
    "address": "2 High Trees Place, Auckland",
    "nb_items": 2,
    "equipment": "Springy seesaw<br>Springy seesaw<br>Swing",
    "id": 21348,
    "url": "http://www.aucklandcity.govt.nz/whatson/places/parksonline/detail2.asp?pParkId=890",
    "facilities": "Playground",
    "about": "Small Local green open space."
  },
  {
    "name": "Howick Domain",
    "long": "174.929521301872",
    "lat": "-36.8977534399288",
    "address": "90R Wellington Street, Auckland",
    "nb_items": 2,
    "equipment": "Fitness bike<br>LegPress",
    "id": 10889,
    "url": "http://www.aucklandcity.govt.nz/whatson/places/parksonline/detail2.asp?pParkId=12342",
    "facilities": "playground, toilets",
    "about": "Local Park - Sport"
  },
  {
    "name": "Huapai Recreation Reserve",
    "long": "174.536964976823",
    "lat": "-36.7709513296468",
    "address": "46 Tapu Road, Auckland",
    "nb_items": 3,
    "equipment": "Module-Medium-Jnr<br>Module-Medium-Jnr<br>Seesaw-Spring<br>Swing<br>Swing",
    "id": 11201,
    "url": "http://www.aucklandcity.govt.nz/whatson/places/parksonline/detail2.asp?pParkId=12344",
    "facilities": "playground, toilets",
    "about": ""
  },
  {
    "name": "Huapai Riverbank,Service Centre,",
    "long": "174.547967722747",
    "lat": "-36.7723699288629",
    "address": "24 Oraha Road, Auckland",
    "nb_items": 1,
    "equipment": "Module",
    "id": 22477,
    "url": "",
    "facilities": "",
    "about": ""
  },
  {
    "name": "Hudsons Beach Recreation Reserve",
    "long": "174.661960738651",
    "lat": "-37.0503009898397",
    "address": "  Hudson Road, Auckland",
    "nb_items": 2,
    "equipment": "Large modular<br>Swing unit",
    "id": 20346,
    "url": "",
    "facilities": "",
    "about": ""
  },
  {
    "name": "Huia Domain",
    "long": "174.57000408923",
    "lat": "-36.999186280673",
    "address": "1193 Huia Road, Auckland",
    "nb_items": 2,
    "equipment": "Modern Modular<br>Modern Modular<br>Swing Double",
    "id": 20605,
    "url": "http://www.aucklandcity.govt.nz/whatson/places/parksonline/detail2.asp?pParkId=12349",
    "facilities": "BBQ,playground, toilets",
    "about": "This sits in a sheltered cove on the Manukau Harbour. A picnic spot with a BBQ available. There is a playground and skate ramp. Little Huia Beach is close for swimming."
  },
  {
    "name": "Huntly Road Reserve",
    "long": "174.762361564917",
    "lat": "-36.7465061269846",
    "address": "8 Huntly Road, North Shore",
    "nb_items": 3,
    "equipment": "Module-Medium<br>Module-Sand play<br>Swing",
    "id": 20051,
    "url": "http://www.aucklandcity.govt.nz/whatson/places/parksonline/detail2.asp?pParkId=12355",
    "facilities": "playground, toilets",
    "about": "Local Park - Coastal"
  },
  {
    "name": "Inwards Reserve",
    "long": "174.706797695046",
    "lat": "-36.7968494451431",
    "address": "57 Salisbury Road, Auckland",
    "nb_items": 1,
    "equipment": "Module-Medium",
    "id": 22027,
    "url": "http://www.aucklandcity.govt.nz/whatson/places/parksonline/detail2.asp?pParkId=12375",
    "facilities": "playground",
    "about": "Local Park - Leisure"
  },
  {
    "name": "Ireland Reserve",
    "long": "174.748957187572",
    "lat": "-36.8504591684861",
    "address": "28 England Street, Auckland",
    "nb_items": 3,
    "equipment": "Seesaw<br>Swings<br>Whale rocker",
    "id": 20987,
    "url": "http://www.aucklandcity.govt.nz/whatson/places/parksonline/detail2.asp?pParkId=915",
    "facilities": "Playground",
    "about": "Very small reserve."
  },
  {
    "name": "Island Bay Reserve",
    "long": "174.689557518766",
    "lat": "-36.810020440704",
    "address": "113 Island Bay Road, Auckland",
    "nb_items": 1,
    "equipment": "Module-Medium",
    "id": 20057,
    "url": "http://www.aucklandcity.govt.nz/whatson/places/parksonline/detail2.asp?pParkId=12378",
    "facilities": "playground, toilets",
    "about": "Local Park - Coastal"
  },
  {
    "name": "Jack Pringle Village Green",
    "long": "174.652144487613",
    "lat": "-36.8415270185439",
    "address": "  Harbour View Road, Auckland",
    "nb_items": 6,
    "equipment": "Double Slide<br>Modern Modular<br>Modern Modular<br>Spica<br>Springy Animal<br>Swing Double<br>Wooden Jetty",
    "id": 11444,
    "url": "",
    "facilities": "",
    "about": ""
  },
  {
    "name": "Jamie Hansen Park",
    "long": "174.687577305356",
    "lat": "-36.5700601909085",
    "address": "29 Sun Valley, Auckland",
    "nb_items": 4,
    "equipment": "Module-Medium<br>Seesaw-Spring<br>Slide<br>Swing",
    "id": 20749,
    "url": "http://www.aucklandcity.govt.nz/whatson/places/parksonline/detail2.asp?pParkId=12396",
    "facilities": "playground",
    "about": ""
  },
  {
    "name": "Jean Sampson Reserve",
    "long": "174.748479987856",
    "lat": "-36.8233132684513",
    "address": "25 Queen Street, Auckland",
    "nb_items": 5,
    "equipment": "Cubby House<br>Fire truck on springs<br>Flower shaped stepping pods<br>Rocker-Two Seat<br>Swing",
    "id": 20888,
    "url": "http://www.aucklandcity.govt.nz/whatson/places/parksonline/detail2.asp?pParkId=12400",
    "facilities": "playground",
    "about": "Local Park - Leisure"
  },
  {
    "name": "Jellicoe Park & Onehunga War Mem Pools",
    "long": "174.781038810083",
    "lat": "-36.9177477662602",
    "address": "1 Park Gardens, Auckland",
    "nb_items": 4,
    "equipment": "Module<br>Seesaw<br>Slide<br>Swings",
    "id": 10315,
    "url": "",
    "facilities": "",
    "about": ""
  },
  {
    "name": "John Moore Reserve",
    "long": "174.74705349881",
    "lat": "-36.9086504020856",
    "address": "20 Bremner Avenue, Auckland",
    "nb_items": 5,
    "equipment": "Module Junior<br>Module Senior<br>Mouse House<br>Rocktopus<br>Swings",
    "id": 21137,
    "url": "http://www.aucklandcity.govt.nz/whatson/places/parksonline/detail2.asp?pParkId=940",
    "facilities": "Playground",
    "about": "Local green open space."
  },
  {
    "name": "John Walker Park",
    "long": "174.872528270467",
    "lat": "-37.0305591685168",
    "address": "64R John Walker Drive, Auckland",
    "nb_items": 6,
    "equipment": "All safe tile<br>Basket swing<br>Mini sprint/scooter track<br>Slide<br>Steping tiles x 3<br>Swing unit",
    "id": 22787,
    "url": "http://www.aucklandcity.govt.nz/whatson/places/parksonline/detail2.asp?pParkId=12408",
    "facilities": "playground",
    "about": "Local Park - Leisure"
  },
  {
    "name": "Jordan Park",
    "long": "174.787591336651",
    "lat": "-36.9158418723931",
    "address": "5A Jordan Avenue, Auckland",
    "nb_items": 5,
    "equipment": "5 poles for blanket forts<br>Playground Surface Sand pit<br>Stepping logs<br>Swings<br>Trampolines x2",
    "id": 10213,
    "url": "http://www.aucklandcity.govt.nz/whatson/places/parksonline/detail2.asp?pParkId=960",
    "facilities": "",
    "about": "Local green open space."
  },
  {
    "name": "Jutland Road Recreation Reserve",
    "long": "174.889353160783",
    "lat": "-37.206019377615",
    "address": "1 Jutland Road, Auckland",
    "nb_items": 4,
    "equipment": "Modern Modular (Small)<br>Roundabout - Stand On<br>Swing<br>Track Glide",
    "id": 22792,
    "url": "http://www.aucklandcity.govt.nz/whatson/places/parksonline/detail2.asp?pParkId=12419",
    "facilities": "playground",
    "about": "Local Park - Leisure"
  },